REQUESTID,DATETIMEINIT,SOURCE,DESCRIPTION,REQCATEGORY,LAT,LONG,STATUS,REFERREDTO,DATETIMECLOSED,Time to Close,SRX,SRY,COUNCILDISTRICT,BEAT,PROBADDRESS,City,State
439799,12/31/12 09:20,Website,Streets - Potholes/Depression,STREETSW,37.84277233,-122.2366165,OPEN,,,Open,6060234,2133987,CCD1,13X,OSTRANDER RD & ROMANY RD,Oakland,CA
439680,12/28/12 17:01,SeeClickFix,Pothole (report from SeeClickFix),STREETSW,37.84178211,-122.2732771,OPEN,,,Open,6049643,2133825,CCD1,10Y,874 57TH ST,Oakland,CA
439623,12/27/12 17:10,SeeClickFix,Pothole (report from SeeClickFix),STREETSW,37.81353118,-122.2552835,OPEN,,,Open,6054645,2123442,CCD3,14X,280 PERKINS ST,Oakland,CA
439499,12/26/12 09:01,SeeClickFix,Streets - Potholes/Depression,STREETSW,37.8016875,-122.2734238,OPEN,,,Open,6049324,2119229,CCD3,03Y,469 10TH STREET,Oakland,CA
439572,12/26/12 23:20,SeeClickFix,Street Issue (report from SeeClickFix),STREETSW,37.79815247,-122.2448743,OPEN,,,Open,6057547,2117787,CCD2,17X,E 21ST ST & 8TH AV,Oakland,CA
439440,12/25/12 14:50,SeeClickFix,Streets - Mudslides / Landslides,STREETSW,37.84837614,-122.2121536,OPEN,,,Open,6067334,2135897,CCD1,13Y,6660 PINE NEEDLE DRIVE,Oakland,CA
439441,12/25/12 14:57,Website,Streets - Potholes/Depression,STREETSW,37.83257124,-122.2608629,OPEN,,,Open,6053164,2130404,CCD1,12X,442 44TH ST,Oakland,CA
439395,12/23/12 21:10,SeeClickFix,Pothole (report from SeeClickFix),STREETSW,37.84382099,-122.2748707,OPEN,,,Open,6049197,2134576,CCD1,10Y,5898 MARKET ST,Oakland,CA
439351,12/22/12 16:20,SeeClickFix,Streets - Potholes/Depression,STREETSW,37.81558793,-122.2425419,OPEN,,,Open,6058339,2124122,CCD2,14Y,900 SCOTT ST,Oakland,CA
439088,12/20/12 12:05,Website,Streets - Potholes/Depression,STREETSW,37.83224584,-122.2587392,OPEN,,,Open,6053775,2130274,CCD1,12X,4340 SHAFTER AV,Oakland,CA
439127,12/20/12 14:31,SeeClickFix,Street Issue (report from SeeClickFix),STREETSW,37.83915916,-122.2816482,OPEN,,,Open,6047208,2132916,CCD1,10X,1082 56TH ST,Oakland,CA
439147,12/20/12 15:30,Phone or Email,Streets/Sidewalks - Curb & Gutter Repair,STREETSW,37.84737536,-122.241501,OPEN,,,Open,6058855,2135689,CCD1,13X,6106 OCEAN VIEW DR,Oakland,CA
438873,12/19/12 09:30,SeeClickFix,Streets - Speed Bump Repair,STREETSW,37.77645803,-122.2010933,OPEN,,,Open,6070051,2109656,CCD4,27X,5029 FAIRFAX AV,Oakland,CA
438879,12/19/12 09:53,Website,Streets - Potholes/Depression,STREETSW,37.81447476,-122.2429624,OPEN,,,Open,6058210,2123719,CCD2,14Y,WARFIELD AV & PRINCE ST,Oakland,CA
438823,12/18/12 16:01,SeeClickFix,Streets - Potholes/Depression,STREETSW,37.84226936,-122.2049953,OPEN,,,Open,6069360,2133636,CCD1,13Z,6452 THORNHILL DR,Oakland,CA
438610,12/17/12 14:40,SeeClickFix,Pothole (report from SeeClickFix),STREETSW,37.77136804,-122.1530303,OPEN,,,Open,6083907,2107554,CCD7,35Y,4292 KELLER AV,Oakland,CA
438289,12/14/12 11:09,Website,Streets - Street Deterioration,STREETSW,37.79372064,-122.2703883,OPEN,,,Open,6050146,2116312,CCD3,01X,JACKSON ST & 2ND ST,Oakland,CA
438198,12/13/12 16:09,Phone or Email,Streets/Sidewalks - Pooling Water,STREETSW,37.83895268,-122.2833162,OPEN,,,Open,6046725,2132850,CCD1,10X,5572 MARSHALL ST,Oakland,CA
437668,12/11/12 09:12,Phone or Email,Streets - Berm Repair or Install,STREETSW,37.74986886,-122.1293745,OPEN,,,Open,6090607,2099607,CCD7,35Y,11011 ETTRICK ST,Oakland,CA
437796,12/11/12 14:56,Phone or Email,Streets - Potholes/Depression,STREETSW,37.78096225,-122.239345,OPEN,,,Open,6059028,2111499,CCD5,19X,LIVINGSTON ST & COTTON ST,Oakland,CA
437382,12/10/12 07:44,SeeClickFix,Streets - Potholes/Depression,STREETSW,37.79397075,-122.2170673,OPEN,,,Open,6065552,2116116,CCD5,21Y,2830 NICOL AV,Oakland,CA
437384,12/10/12 07:49,Website,Sidewalk - Damage,STREETSW,37.79860435,-122.1912331,OPEN,,,Open,6073046,2117667,CCD4,25X,3517 JORDAN RD,Oakland,CA
437405,12/10/12 08:56,Website,Streets - Street Deterioration,STREETSW,37.78973428,-122.1901346,OPEN,,,Open,6073305,2114432,CCD4,25X,BAYO ST & HIGH ST,Oakland,CA
437592,12/10/12 21:58,Website,Streets - Potholes/Depression,STREETSW,37.77280514,-122.2353682,OPEN,,,Open,6060122,2108508,CCD5,20X,29TH AV & GLASCOCK ST,Oakland,CA
437376,12/9/12 22:04,SeeClickFix,Streets - Street Deterioration,STREETSW,37.84127796,-122.2220066,OPEN,,,Open,6064442,2133365,CCD1,13Y,AVOCA AV & LEO WY,Oakland,CA
437256,12/7/12 15:37,Website,Streets - Street Deterioration,STREETSW,37.84760504,-122.2006368,OPEN,,,Open,6070653.65,2135555.64,,13Y,GRIZZLY PEAK BLVD & SKYLINE BLVD,Oakland,CA
436944,12/6/12 07:13,SeeClickFix,Street Issue (report from SeeClickFix),STREETSW,37.83760198,-122.2267597,OPEN,,,Open,6063045,2132052,CCD1,13X,5135 HARBORD DR,Oakland,CA
436952,12/6/12 08:13,SeeClickFix,Streets - Potholes/Depression,STREETSW,37.81430504,-122.2998368,OPEN,,,Open,6041782.58,2123968.17,CCD3,05Y,FRONTAGE RD & 14TH ST,Oakland,CA
436980,12/6/12 09:13,SeeClickFix,Streets - Potholes/Depression,STREETSW,37.81066234,-122.2331695,OPEN,,,Open,6061012.65,2122278.51,CCD2,16X,710 PALOMA AV,Oakland,CA
437012,12/6/12 11:13,SeeClickFix,Streets - Potholes/Depression,STREETSW,37.83877448,-122.2554511,OPEN,,,Open,6054769,2132633,CCD1,12Y,5280 BOYD AV,Oakland,CA
436798,12/5/12 09:57,Phone or Email,Streets - Street Deterioration,STREETSW,37.84602597,-122.2469388,OPEN,,,Open,6057276,2135227,CCD1,12Y,KEITH AV & PRESLEY WY,Oakland,CA
436845,12/5/12 11:49,Phone or Email,Streets - Potholes/Depression,STREETSW,37.81079529,-122.3132115,OPEN,,,Open,6037895,2122765,CCD3,05Y,761 MARITIME ST,Oakland,CA
436860,12/5/12 12:48,Phone or Email,Streets - Street Deterioration,STREETSW,37.82150759,-122.2545649,OPEN,,,Open,6054907,2126342,CCD1,09X,WEST MACARTHUR & FAIRMONT,Oakland,CA
436882,12/5/12 14:40,Phone or Email,Streets/Sidewalks - Pooling Water,STREETSW,37.84327148,-122.2431885,OPEN,,,Open,6058340,2134204,CCD1,13X,MARGARIDO DR & MANILA AV,Oakland,CA
436529,12/4/12 08:20,SeeClickFix,Streets - Potholes/Depression,STREETSW,37.74005909,-122.1860717,OPEN,,,Open,6074153,2096326,CCD7,31Y,9300 WALTER AVE,Oakland,CA
436652,12/4/12 14:46,Phone or Email,Streets/Sidewalks - Pooling Water,STREETSW,37.81209256,-122.2280776,OPEN,,,Open,6062493,2122772,CCD2,16X,1033 CLARENDON CRES,Oakland,CA
436702,12/4/12 19:33,SeeClickFix,Streets - Potholes/Depression,STREETSW,37.77275432,-122.2332216,OPEN,,,Open,6060742,2108478,CCD5,20X,2912 FORD ST,Oakland,CA
436299,12/3/12 08:46,Phone or Email,Streets - Berm Repair or Install,STREETSW,37.77683431,-122.1722834,OPEN,,,Open,6078378.61,2109642.93,CCD6,29X,3855 DELMONT AV,Oakland,CA
436316,12/3/12 09:23,Website,Streets - Potholes/Depression,STREETSW,37.78827327,-122.1891565,OPEN,,,Open,6073578,2113895,CCD4,25X,4395 ALBERT ST,Oakland,CA
436336,12/3/12 09:59,Website,Streets - Berm Repair or Install,STREETSW,37.83541092,-122.2295141,OPEN,,,Open,6062235,2131269,CCD1,13X,CLAREWOOD DR & TRUITT LN,Oakland,CA
436165,12/2/12 10:47,Phone or Email,Streets - Mudslides / Landslides,STREETSW,37.79485441,-122.1758827,OPEN,,,Open,6077456,2116222,CCD6,25Y,CAMPUS DR & REDWOOD RD,Oakland,CA
436201,12/2/12 12:13,Phone or Email,Streets - Mudslides / Landslides,STREETSW,37.84633971,-122.2012128,OPEN,,,Open,6070479,2135098,CCD1,13Y,6835 ELVERTON DR,Oakland,CA
436084,12/1/12 10:20,SeeClickFix,Streets/Sidewalks - Pooling Water,STREETSW,37.80275829,-122.282928,OPEN,,,Open,6046586,2119671,CCD3,02X,7TH ST & MARKET ST,Oakland,CA
435914,11/30/12 09:52,Phone or Email,Streets/Sidewalks - Pooling Water,STREETSW,37.80490994,-122.2424367,OPEN,,,Open,6058297,2120234,CCD2,15X,586 MONTCLAIR AV,Oakland,CA
435730,11/29/12 09:47,Website,Streets - Berm Repair or Install,STREETSW,37.76744622,-122.1600259,OPEN,,,Open,6081860,2106162,CCD6,30Y,7969 SUNKIST DR,Oakland,CA
435519,11/28/12 08:30,SeeClickFix,Sidewalk (report from SeeClickFix),STREETSW,37.81086727,-122.2393047,OPEN,,,Open,6059242,2122386,CCD2,16X,622 CALMAR AV,Oakland,CA
435574,11/28/12 10:56,Phone or Email,Streets/Sidewalks - Pooling Water,STREETSW,37.80328288,-122.1961516,OPEN,,,Open,6071656,2119396,CCD4,22Y,3062 FRYE ST,Oakland,CA
435377,11/27/12 11:20,Phone or Email,Streets - Potholes/Depression,STREETSW,37.78498894,-122.2374907,OPEN,,,Open,6059591,2112955,CCD2,19X,MARIN WY & 22ND AV,Oakland,CA
435113,11/26/12 09:51,Phone or Email,Streets - Street Deterioration,STREETSW,37.79499859,-122.1895518,OPEN,,,Open,6073508,2116345.5,CCD4,25X,39TH AV & VICTOR AV,Oakland,CA
434937,11/21/12 22:40,SeeClickFix,Streets/Sidewalks - Curb & Gutter Repair,STREETSW,37.79010172,-122.1865329,OPEN,,,Open,6074348,2114547,CCD4,25X,4446 TOMPKINS AV,Oakland,CA
434767,11/20/12 14:39,Phone or Email,Streets - Street Deterioration,STREETSW,37.7750772,-122.2073079,OPEN,,,Open,6068246,2109186,CCD4,27X,47TH AV & MELROSE AV,Oakland,CA
434484,11/19/12 10:43,Phone or Email,Streets - Mudslides / Landslides,STREETSW,37.84346457,-122.2102841,OPEN,,,Open,6067841,2134099,CCD1,13Y,6400 VALLEY VIEW RD,Oakland,CA
434146,11/15/12 15:19,Phone or Email,Streets - Speed Bump Repair,STREETSW,37.78353452,-122.2129154,OPEN,,,Open,6066681.94,2112294.59,CCD5,24X,2185 SANTA RITA ST,Oakland,CA
433888,11/14/12 10:16,Website,Streets - Berm Repair or Install,STREETSW,37.76797664,-122.1596156,OPEN,,,Open,6081982,2106353,CCD6,30Y,7969 CREST AV,Oakland,CA
433776,11/13/12 16:02,Phone or Email,Streets - Potholes/Depression,STREETSW,37.80912976,-122.1885647,OPEN,,,Open,6073886,2121485,CCD4,22Y,3255 CRANE WY,Oakland,CA
433581,11/12/12 21:30,SeeClickFix,Streets - Street Deterioration,STREETSW,37.83775714,-122.2110185,OPEN,,,Open,6067591,2132025,CCD4,13Z,GOULDIN RD & THORNHILL DR,Oakland,CA
433582,11/12/12 21:40,SeeClickFix,Streets - Street Deterioration,STREETSW,37.83666927,-122.2064771,OPEN,,,Open,6068895,2131605,CCD4,13Z,ALHAMBRA AV & GOULDIN RD,Oakland,CA
433286,11/8/12 14:09,Phone or Email,Streets - Potholes/Depression,STREETSW,37.79507232,-122.1914019,OPEN,,,Open,6072974,2116382,CCD4,25X,4106 PATTERSON AV,Oakland,CA
433302,11/8/12 15:16,Phone or Email,Streets - Potholes/Depression,STREETSW,37.78138464,-122.2116093,OPEN,,,Open,6067045,2111505,CCD5,24X,2184 39TH AV,Oakland,CA
433304,11/8/12 15:21,SeeClickFix,Streets - Potholes/Depression,STREETSW,37.85004089,-122.2545884,OPEN,,,Open,6055095,2136730,CCD1,12Y,HILLEGASS AV & 63RD ST,Oakland,CA
433091,11/7/12 14:34,Phone or Email,Streets - Street Deterioration,STREETSW,37.74276009,-122.1738708,OPEN,,,Open,6077698,2097246,CCD7,32X,B ST & 98TH AV,Oakland,CA
433092,11/7/12 14:36,Phone or Email,Streets - Street Deterioration,STREETSW,37.74333915,-122.1847002,OPEN,,,Open,6074571,2097513,CCD7,31Y,92ND AV & SAN LEANDRO ST,Oakland,CA
432864,11/6/12 11:01,SeeClickFix,Inspections - Utility-Related Infrastructure,STREETSW,37.77676984,-122.2242519,OPEN,,,Open,6063361,2109892,CCD5,23X,3347 INTERNATIONAL BLVD,Oakland,CA
432495,11/2/12 15:01,Website,Streets - Potholes/Depression,STREETSW,37.79887065,-122.2287495,OPEN,,,Open,6062210,2117962,CCD5,18Y,1600 E 31ST ST,Oakland,CA
432340,11/1/12 12:49,Phone or Email,Streets/Sidewalks - Pooling Water,STREETSW,37.81389821,-122.2742626,OPEN,,,Open,6049166,2123679,CCD3,06X,2298 SAN PABLO AV,Oakland,CA
432376,11/1/12 16:10,Website,Streets/Sidewalks Maintenance - General,STREETSW,37.83705717,-122.1992025,OPEN,,,Open,6070998,2131708,CCD4,13Z,6948 COLTON BLVD,Oakland,CA
432169,10/31/12 12:41,Website,Streets - Berm Repair or Install,STREETSW,37.82228419,-122.1885523,OPEN,,,Open,6073976,2126274,CCD4,13Z,6435 MELVILLE DR,Oakland,CA
431846,10/29/12 14:13,Website,Streets - Speed Bump Repair,STREETSW,37.73103623,-122.1756472,OPEN,,,Open,6077108,2092987,CCD7,31Z,10900 EDES AV,Oakland,CA
431699,10/28/12 13:30,SeeClickFix,Streets/Sidewalks - Pooling Water,STREETSW,37.81830799,-122.2508398,OPEN,,,Open,6055961,2125157,CCD2,14Y,7 MOSS AV,Oakland,CA
431703,10/28/12 15:20,SeeClickFix,Pothole (report from SeeClickFix),STREETSW,37.81861496,-122.2498703,OPEN,,,Open,6056243.07,2125263.519,CCD2,14Y,584 VERNON ST,Oakland,CA
431546,10/26/12 08:55,Phone or Email,Streets/Sidewalks - Pooling Water,STREETSW,37.84319187,-122.2589189,OPEN,,,Open,6053798,2134260,CCD1,12Y,5724 AYALA AV,Oakland,CA
431566,10/26/12 10:07,Phone or Email,Streets - Mudslides / Landslides,STREETSW,37.83771056,-122.2166836,OPEN,,,Open,6065955,2132038,CCD4,13Y,320 CAPRICORN AV,Oakland,CA
431621,10/26/12 14:20,Website,Streets - Potholes/Depression,STREETSW,37.83735421,-122.278938,OPEN,,,Open,6047978,2132244,CCD1,10X,53RD ST & 48TH ST,Oakland,CA
431635,10/26/12 15:55,Phone or Email,Streets - Street Deterioration,STREETSW,37.80992113,-122.194863,OPEN,,,Open,6072072,2121806,CCD4,22Y,HEDGE LN & BURDECK DR,Oakland,CA
431651,10/26/12 22:45,Website,Streets - Potholes/Depression,STREETSW,37.7878946,-122.1920033,OPEN,,,Open,6072753,2113772,CCD4,25X,KANSAS ST & MADRONE AV,Oakland,CA
431479,10/25/12 13:51,SeeClickFix,Pothole (report from SeeClickFix),STREETSW,37.81879883,-122.2634344,OPEN,,,Open,6052327,2125404,CCD3,08X,WEBSTER ST & 30TH ST,Oakland,CA
431226,10/24/12 08:30,SeeClickFix,Streets/Sidewalks - Pooling Water,STREETSW,37.79958341,-122.2480373,OPEN,,,Open,6056643,2118325,CCD2,17X,520 20TH ST,Oakland,CA
431238,10/24/12 09:10,SeeClickFix,Streets - Street Deterioration,STREETSW,37.80519667,-122.2270516,OPEN,,,Open,6062743,2120256,CCD5,16Y,BEAUMONT AV & PARK BLVD,Oakland,CA
431256,10/24/12 09:47,Phone or Email,Streets - Potholes/Depression,STREETSW,37.77888697,-122.192068,OPEN,,,Open,6072675,2110493,CCD6,28X,BIRDSALL AV & MADERA AV,Oakland,CA
431260,10/24/12 09:56,Phone or Email,Streets - Berm Repair or Install,STREETSW,37.81569041,-122.1921105,OPEN,,,Open,6072905,2123892,CCD4,13Z,6035 CASTLE DR,Oakland,CA
430759,10/22/12 08:27,Phone or Email,Streets/Sidewalks - Pooling Water,STREETSW,37.80859799,-122.2172152,OPEN,,,Open,6065607,2121442,CCD5,16Y,4616 DOLORES AV,Oakland,CA
430902,10/22/12 15:44,Phone or Email,Streets - Berm Repair or Install,STREETSW,37.80998669,-122.1948887,OPEN,,,Open,6072065,2121830,CCD4,22Y,2941 BURDECK DR,Oakland,CA
430558,10/19/12 10:55,Phone or Email,Streets - Street Deterioration,STREETSW,37.83053853,-122.2352861,OPEN,,,Open,6060535.5,2129526,,PDT2,MORAGA AV & HIGHLAND AV,Oakland,CA
430560,10/19/12 10:59,Phone or Email,Streets - Street Deterioration,STREETSW,37.82206395,-122.2067196,OPEN,,,Open,6068728,2126289,CCD4,22X,PARK BLVD & MOUNTAIN BLVD,Oakland,CA
430440,10/18/12 13:41,Phone or Email,Streets/Sidewalks - Pooling Water,STREETSW,37.80721455,-122.2323643,OPEN,,,Open,6061222,2121019,CCD2,16X,1169 TRESTLE GLEN RD,Oakland,CA
430474,10/18/12 15:29,Phone or Email,Streets/Sidewalks - Pooling Water,STREETSW,37.81243111,-122.2377522,OPEN,,,Open,6059701,2122947,CCD2,16X,705 CALMAR AV,Oakland,CA
430027,10/16/12 11:15,Website,Streets - Potholes/Depression,STREETSW,37.79885534,-122.2286695,OPEN,,,Open,6062233,2117956,CCD5,18Y,1620 EAST 31ST STREET,Oakland,CA
429726,10/15/12 09:29,Website,Streets - Street Deterioration,STREETSW,37.84365761,-122.2249506,OPEN,,,Open,6063608,2134247,CCD1,13Y,638 CALDWELL RD,Oakland,CA
429672,10/14/12 17:51,Website,Streets - Potholes/Depression,STREETSW,37.79645662,-122.2089348,OPEN,,,Open,6067918,2116978,CCD4,22Y,2876 MONTANA ST,Oakland,CA
429482,10/12/12 08:51,Phone or Email,Streets - Potholes/Depression,STREETSW,37.80361645,-122.1945391,OPEN,,,Open,6072124,2119509,CCD4,22Y,3142 JORDAN RD,Oakland,CA
429162,10/10/12 11:28,Phone or Email,Streets - Potholes/Depression,STREETSW,37.81236855,-122.2780727,OPEN,,,Open,6048055,2123143,CCD3,05X,2023 CURTIS ST,Oakland,CA
428841,10/9/12 02:57,Website,Streets - Street Deterioration,STREETSW,37.77014077,-122.2101807,OPEN,,,Open,6067383,2107404,CCD5,27Y,48TH AV & INTERNATIONAL BLVD,Oakland,CA
428785,10/8/12 09:30,SeeClickFix,Streets - Street Deterioration,STREETSW,37.74482886,-122.1730664,OPEN,,,Open,6077944,2097995,CCD7,33X,9624 A STREET,Oakland,CA
428766,10/7/12 19:02,Website,Streets - Street Deterioration,STREETSW,37.80194236,-122.2277582,OPEN,,,Open,6062517,2119075,CCD5,16Y,1455 E 36TH ST,Oakland,CA
428575,10/5/12 09:07,Phone or Email,Streets - Potholes/Depression,STREETSW,37.77577006,-122.200991,OPEN,,,Open,6070076,2109405,CCD4,27X,5068 FAIRFAX AV,Oakland,CA
428579,10/5/12 09:11,Website,Streets - Potholes/Depression,STREETSW,37.77603618,-122.1750022,OPEN,,,Open,6077587.76,2109366.41,CCD6,29X,6535 BUENA VENTURA AV,Oakland,CA
428702,10/5/12 17:10,SeeClickFix,Streets - Potholes/Depression,STREETSW,37.79679213,-122.1865845,OPEN,,,Open,6074377,2116983,CCD4,25X,39TH AV & REINHARDT DR,Oakland,CA
428480,10/4/12 13:45,Website,Streets - Potholes/Depression,STREETSW,37.79615701,-122.1875878,OPEN,,,Open,6074083,2116757,CCD4,25X,39TH AV & SELKIRK ST,Oakland,CA
428481,10/4/12 13:46,Phone or Email,Streets/Sidewalks Maintenance - General,STREETSW,37.80269565,-122.2058243,OPEN,,,Open,6068858,2119233,CCD4,22X,RHODA AV & CARMEL ST,Oakland,CA
428001,10/2/12 08:40,SeeClickFix,Streets - Street Deterioration,STREETSW,37.79422218,-122.2743013,OPEN,,,Open,6049019,2116516,CCD3,01X,EMBARCADERO & WEBSTER ST,Oakland,CA
428102,10/2/12 13:34,Phone or Email,Streets - Street Deterioration,STREETSW,37.79485441,-122.1758827,OPEN,,,Open,6077456,2116222,CCD6,25Y,CAMPUS DR & REDWOOD RD,Oakland,CA
427579,9/28/12 09:06,Website,Streets - Berm Repair or Install,STREETSW,37.83322646,-122.2231843,OPEN,,,Open,6064048,2130440,CCD1,13X,5515 HARBORD DR,Oakland,CA
427582,9/28/12 09:10,Phone or Email,Streets - Street Deterioration,STREETSW,37.76155875,-122.1589359,OPEN,,,Open,6082137,2104013,CCD7,35X,FONTAINE ST & GOLF LINKS RD,Oakland,CA
427369,9/27/12 08:12,Phone or Email,Streets - Potholes/Depression,STREETSW,37.82221396,-122.2710783,OPEN,,,Open,6050143,2126689,CCD3,06X,690 BROCKHURST ST,Oakland,CA
427449,9/27/12 12:35,Phone or Email,Streets/Sidewalks Maintenance - General,STREETSW,37.7533982,-122.1736918,OPEN,,,Open,6077819,2101118,CCD7,34X,1656 AUSEON AV,Oakland,CA
427218,9/26/12 09:17,Phone or Email,Streets/Sidewalks - Pooling Water,STREETSW,37.82522448,-122.2554562,OPEN,,,Open,6054675,2127700,CCD1,09X,3830 HOWE ST,Oakland,CA
427115,9/25/12 12:07,Phone or Email,Streets/Sidewalks - Curb & Gutter Repair,STREETSW,37.8297961,-122.2195827,OPEN,,,Open,6065065,2129172,CCD4,13Z,5900 HARBORD DR,Oakland,CA
426890,9/24/12 10:58,Phone or Email,Streets - Street Deterioration,STREETSW,37.83461263,-122.1909766,OPEN,,,Open,6073357,2130775,CCD4,13Z,SHEPHERD CANYON RD & GUNN DR,Oakland,CA
426917,9/24/12 12:17,Website,Streets - Potholes/Depression,STREETSW,37.84024976,-122.2574638,OPEN,,,Open,6054198,2133181,CCD1,12Y,CLIFTON ST & MILES AV,Oakland,CA
426782,9/22/12 19:39,Website,Streets - Street Deterioration,STREETSW,37.77310344,-122.1446255,OPEN,,,Open,6086347,2108143,CCD7,25Y,CAMPUS DR & KELLER AV,Oakland,CA
426713,9/21/12 14:02,Phone or Email,Streets - Potholes/Depression,STREETSW,37.74821537,-122.1701816,OPEN,,,Open,6078800,2099213,CCD7,34X,1612 94TH AV,Oakland,CA
426021,9/18/12 06:38,Phone or Email,Streets - Potholes/Depression,STREETSW,37.80724574,-122.1864342,OPEN,,,Open,6074489,2120788,CCD4,22Y,3322 BUTTERS DR,Oakland,CA
426221,9/18/12 16:43,Phone or Email,Streets - Street Deterioration,STREETSW,37.83597566,-122.2033441,OPEN,,,Open,6069795,2131336,CCD4,13Z,6771 ARMOUR DR,Oakland,CA
425940,9/17/12 14:04,Phone or Email,Streets/Sidewalks - Pooling Water,STREETSW,37.8068839,-122.1873435,OPEN,,,Open,6074224,2120661,CCD4,22Y,3250 BUTTERS DR,Oakland,CA
425988,9/17/12 16:15,Phone or Email,Sidewalk - Damage,STREETSW,37.79638008,-122.2281342,OPEN,,,Open,6062371,2117052,CCD5,18Y,2926 21ST AV,Oakland,CA
425997,9/17/12 16:30,SeeClickFix,Streets - Street Deterioration,STREETSW,37.79426032,-122.2662716,OPEN,,,Open,6051339,2116486,CCD3,01X,70 4TH ST,Oakland,CA
425999,9/17/12 16:34,Phone or Email,Inspections - Utility-Related Infrastructure,STREETSW,37.78049128,-122.2097615,OPEN,,,Open,6067573,2111170,CCD5,24X,2219 ROSEDALE AV,Oakland,CA
425605,9/14/12 11:30,SeeClickFix,Streets - Street Deterioration,STREETSW,37.7863976,-122.2085753,OPEN,,,Open,6067955,2113314,CCD4,24X,SHORT ST & BROOKDALE AV,Oakland,CA
425199,9/12/12 09:22,Phone or Email,Streets - Potholes/Depression,STREETSW,37.77641223,-122.2035042,OPEN,,,Open,6069354,2109652,CCD4,27X,50TH AV & VICKSBURG AV,Oakland,CA
425210,9/12/12 09:44,Phone or Email,Streets/Sidewalks - Curb & Gutter Repair,STREETSW,37.82855847,-122.1976919,OPEN,,,Open,6071378,2128606,CCD4,13Z,6259 GIRVIN DR,Oakland,CA
424972,9/11/12 10:26,Phone or Email,Streets - Potholes/Depression,STREETSW,37.78340836,-122.2188305,OPEN,,,Open,6064972,2112280,CCD5,24X,3417 ALEXANDER CT,Oakland,CA
424824,9/9/12 12:10,SeeClickFix,Streets - Street Deterioration,STREETSW,37.82799485,-122.2068664,OPEN,,,Open,6068725,2128449,CCD4,13Z,6007 SNAKE RD,Oakland,CA
424759,9/7/12 13:05,Website,Streets - Potholes/Depression,STREETSW,37.78384662,-122.2113615,OPEN,,,Open,6067133,2112400,CCD5,24X,RANSOM AV & SANTA RITA ST,Oakland,CA
424656,9/6/12 12:41,Website,Streets - Potholes/Depression,STREETSW,37.78500491,-122.2097165,OPEN,,,Open,6067616,2112813,CCD4,24X,LYON AV & RANSOM AV,Oakland,CA
424725,9/6/12 17:38,Website,Streets - Potholes/Depression,STREETSW,37.79896291,-122.2664527,OPEN,,,Open,6051319,2118199,CCD2,03X,177 10TH ST,Oakland,CA
424119,9/3/12 17:01,SeeClickFix,Streets - Potholes/Depression,STREETSW,37.78739372,-122.2063658,OPEN,,,Open,6068600,2113665,CCD4,24Y,2835 SHORT ST,Oakland,CA
423729,8/30/12 10:24,Website,Streets - Street Deterioration,STREETSW,37.81212661,-122.2114249,OPEN,,,Open,6067303,2122696,CCD4,22X,4420 BRIDGEVIEW DR,Oakland,CA
423451,8/28/12 17:20,SeeClickFix,Pothole (report from SeeClickFix),STREETSW,37.82696811,-122.2106208,OPEN,,,Open,6067634,2128095,CCD4,13Z,6136 MEDAU PL,Oakland,CA
422937,8/24/12 10:40,SeeClickFix,Streets - Potholes/Depression,STREETSW,37.83051746,-122.1909595,OPEN,,,Open,6073335,2129284,CCD4,13Z,AITKEN DR & GIRVIN DR,Oakland,CA
422842,8/23/12 14:23,Phone or Email,Streets - Potholes/Depression,STREETSW,37.7941418,-122.1930802,OPEN,,,Open,6072483,2116052,CCD4,25X,PATTERSON AV & WISCONSIN ST,Oakland,CA
422494,8/21/12 11:55,Website,Streets - Street Deterioration,STREETSW,37.81030705,-122.194768,OPEN,,,Open,6072102,2121946,CCD4,22Y,HEDGE CT & HEDGE LN,Oakland,CA
422495,8/21/12 11:56,Phone or Email,Streets/Sidewalks Maintenance - General,STREETSW,37.77567704,-122.1875862,OPEN,,,Open,6073949,2109301,CCD6,29X,3007 58TH AV,Oakland,CA
422324,8/20/12 13:01,Website,Streets - Street Deterioration,STREETSW,37.81056733,-122.2277547,OPEN,,,Open,6062576,2122215,CCD2,16X,SUNNYHILLS RD & HUBERT RD,Oakland,CA
422395,8/20/12 16:39,Website,Streets - Potholes/Depression,STREETSW,37.83808316,-122.2125915,OPEN,,,Open,6067139,2132152,CCD4,13Y,VALLEY VIEW RD & MERRIEWOOD DR,Oakland,CA
421892,8/16/12 12:08,Website,Streets - Street Deterioration,STREETSW,37.79699761,-122.2102696,OPEN,,,Open,6067536,2117182,CCD4,22X,COOLIDGE AV & MONTANA ST,Oakland,CA
421911,8/16/12 13:25,Phone or Email,Streets/Sidewalks - Curb & Gutter Repair,STREETSW,37.78694946,-122.1685053,OPEN,,,Open,6079536,2113306,CCD6,25Y,6049 RIDGEMONT DR,Oakland,CA
421708,8/15/12 12:47,Phone or Email,Streets/Sidewalks - Curb & Gutter Repair,STREETSW,37.80044413,-122.2103178,OPEN,,,Open,6067545,2118437,CCD4,22X,2557 DAMUTH ST,Oakland,CA
421397,8/13/12 20:17,Website,Streets - Street Deterioration,STREETSW,37.77844817,-122.2379053,OPEN,,,Open,6059427,2110576,CCD5,19X,KENNEDY ST & FREDERICK ST,Oakland,CA
420644,8/7/12 11:07,Website,Streets/Sidewalks - Curb &amp; Gutter Repair,STREETSW,37.84693809,-122.237438,OPEN,,,Open,6060025,2135508,CCD1,13X,5543 GOLDEN GATE AV,Oakland,CA
420726,8/7/12 20:30,SeeClickFix,Streets - Potholes/Depression,STREETSW,37.77579388,-122.1596207,OPEN,,,Open,6082031,2109199,CCD6,25Y,ALTURA PL & RIFLE LN,Oakland,CA
420339,8/4/12 16:28,Website,Streets - Potholes/Depression,STREETSW,37.77705541,-122.2038547,OPEN,,,Open,6069257,2109888,CCD4,27X,2231 VICKSBURG AV,Oakland,CA
420340,8/4/12 16:30,Website,Streets - Potholes/Depression,STREETSW,37.83087213,-122.2122658,OPEN,,,Open,6067185,2129525,CCD4,13Z,1824 MOUNTAIN BLVD,Oakland,CA
420137,8/3/12 08:20,SeeClickFix,Streets - Potholes/Depression,STREETSW,37.74147797,-122.1516724,OPEN,,,Open,6084107.345,2096665.192,CCD7,32Y,2500 108TH AVE,Oakland,CA
420182,8/3/12 10:27,Website,Streets - Street Deterioration,STREETSW,37.80705905,-122.2085661,OPEN,,,Open,6068095,2120836,CCD4,22X,WHITTLE AV & TIFFIN RD,Oakland,CA
420240,8/3/12 13:20,SeeClickFix,Streets - Street Deterioration,STREETSW,37.77211474,-122.2361791,OPEN,,,Open,6059883,2108261,CCD5,20X,23RD AV & 29TH AV,Oakland,CA
419739,7/31/12 15:43,Website,Streets - Potholes/Depression,STREETSW,37.86043075,-122.2344142,OPEN,,,Open,6060989,2140404,CCD1,13Y,1006 AMITO AV,Oakland,CA
419334,7/30/12 08:30,SeeClickFix,Streets - Potholes/Depression,STREETSW,37.84798499,-122.24236,OPEN,,,Open,6058611.15,2135915.56,CCD1,13X,6132 MARGARIDO DR,Oakland,CA
419470,7/30/12 14:10,SeeClickFix,Streets - Street Deterioration,STREETSW,37.79645838,-122.237946,OPEN,,,Open,6059537,2117133,CCD2,17Y,13TH AV & E 24TH ST,Oakland,CA
419155,7/27/12 14:50,SeeClickFix,Streets - Street Deterioration,STREETSW,37.77576384,-122.1387946,OPEN,,,Open,6088049,2109082,CCD6,25Y,CHARIOT LN & HANSOM DR,Oakland,CA
418863,7/26/12 06:20,SeeClickFix,Streets - Potholes/Depression,STREETSW,37.7936744,-122.2162921,OPEN,,,Open,6065774,2116004,CCD5,21Y,NICOL AV & CAPP ST,Oakland,CA
418979,7/26/12 14:30,SeeClickFix,Streets - Potholes/Depression,STREETSW,37.78652441,-122.2176185,OPEN,,,Open,6065343,2113408,CCD5,24X,34TH AV & SALISBURY ST,Oakland,CA
418988,7/26/12 14:56,Website,Streets - Potholes/Depression,STREETSW,37.802252,-122.2877036,OPEN,,,Open,6045203,2119513,CCD3,02X,1107  5TH ST,Oakland,CA
418994,7/26/12 15:17,Phone or Email,Streets/Sidewalks - Curb & Gutter Repair,STREETSW,37.79385873,-122.1986293,OPEN,,,Open,6070878,2115978,CCD4,25X,MAGEE AV & KANSAS ST,Oakland,CA
418496,7/24/12 08:00,SeeClickFix,Streets - Potholes/Depression,STREETSW,37.77993199,-122.2038065,OPEN,,,Open,6069290,2110935,CCD4,27X,2456 FRANCES ST,Oakland,CA
418650,7/24/12 17:40,SeeClickFix,Streets - Potholes/Depression,STREETSW,37.79908303,-122.1877304,OPEN,,,Open,6074061,2117823,CCD4,22Y,4314 ATLAS AV,Oakland,CA
417566,7/17/12 09:24,Website,Streets - Potholes/Depression,STREETSW,37.82735396,-122.2498619,OPEN,,,Open,6056305,2128445,CCD1,09X,31 ENTRADA AVENUE,Oakland,CA
417650,7/17/12 12:09,Phone or Email,Streets/Sidewalks - Curb & Gutter Repair,STREETSW,37.82261349,-122.193747,OPEN,,,Open,6072478,2126421,CCD4,13Z,6341 LONGCROFT DR,Oakland,CA
417121,7/13/12 10:33,Website,Streets - Potholes/Depression,STREETSW,37.80115615,-122.2742351,OPEN,,,Open,6049086,2119040,CCD3,03Y,485 9TH ST,Oakland,CA
416983,7/12/12 11:12,Phone or Email,Streets/Sidewalks - Curb & Gutter Repair,STREETSW,37.86259232,-122.2439301,OPEN,,,Open,6058257,2141242,CCD1,13Y,100 STONEWALL RD,Oakland,CA
417021,7/12/12 12:55,SeeClickFix,Sidewalk (report from SeeClickFix),STREETSW,37.80972344,-122.2746025,OPEN,,,Open,6049039,2122161,CCD3,04X,670 19TH ST,Oakland,CA
417044,7/12/12 14:51,Phone or Email,Streets/Sidewalks - Curb & Gutter Repair,STREETSW,37.76806295,-122.1651815,OPEN,,,Open,6080374,2106413,CCD6,30Y,7814 OUTLOOK AV,Oakland,CA
416730,7/11/12 00:16,Website,Streets - Berm Repair or Install,STREETSW,37.83268255,-122.2046573,OPEN,,,Open,6069394,2130144,CCD4,13Z,6522 SARONI DR,Oakland,CA
416871,7/11/12 16:04,Phone or Email,Streets/Sidewalks - Pooling Water,STREETSW,37.83268255,-122.2046573,OPEN,,,Open,6069394,2130144,CCD4,13Z,6522 SARONI DR,Oakland,CA
416525,7/10/12 00:00,SeeClickFix,Sidewalk - Damage,STREETSW,37.84481389,-122.2771563,OPEN,,,Open,6048544,2134950,CCD1,10X,61ST PL & LOWELL ST,Oakland,CA
416721,7/10/12 20:50,SeeClickFix,Streets - Street Deterioration,STREETSW,37.85155234,-122.2419316,OPEN,,,Open,6058759,2137212,CCD1,12Y,ROANOKE RD & MANOR CREST,Oakland,CA
416723,7/10/12 20:50,SeeClickFix,Streets - Potholes/Depression,STREETSW,37.85145441,-122.241867,OPEN,,,Open,6058777,2137176,CCD1,12Y,6326 ROANOKE RD,Oakland,CA
416385,7/9/12 12:00,Website,Streets - Potholes/Depression,STREETSW,37.83913443,-122.2552588,OPEN,,,Open,6054827,2132763,CCD1,12Y,CLIFTON ST & BOYD AV,Oakland,CA
415804,7/4/12 09:16,Website,Streets - Street Deterioration,STREETSW,37.77383352,-122.2371606,OPEN,,,Open,6059611,2108892,CCD5,19X,333 KENNEDY ST,Oakland,CA
415839,7/4/12 16:50,SeeClickFix,Streets - Potholes/Depression,STREETSW,37.85036696,-122.2270845,OPEN,,,Open,6063037,2136701,CCD1,13Y,690 HILLER DR,Oakland,CA
415238,6/29/12 11:20,SeeClickFix,Streets - Street Deterioration,STREETSW,37.79857404,-122.1923886,OPEN,,,Open,6072712,2117662,CCD4,25X,WILLIS CT & 35TH AV,Oakland,CA
415288,6/29/12 14:43,Phone or Email,Streets/Sidewalks - Pooling Water,STREETSW,37.824147,-122.276059,OPEN,,,Open,6048718,2127420,CCD3,06X,920 33RD ST,Oakland,CA
415010,6/28/12 08:40,SeeClickFix,Streets - Potholes/Depression,STREETSW,37.80581827,-122.2075648,OPEN,,,Open,6068376,2120379,CCD4,22X,2414 POTOMAC ST,Oakland,CA
415024,6/28/12 09:15,Phone or Email,Streets - Potholes/Depression,STREETSW,37.7936744,-122.2162921,OPEN,,,Open,6065774,2116004,CCD5,21Y,NICOL AV & CAPP ST,Oakland,CA
415108,6/28/12 12:05,Phone or Email,Streets - Berm Repair or Install,STREETSW,37.77114224,-122.1628352,OPEN,,,Open,6081072,2107522,CCD6,30Y,3632 FIELD ST,Oakland,CA
415143,6/28/12 14:07,Website,Streets - Potholes/Depression,STREETSW,37.81126426,-122.2588411,OPEN,,,Open,6053602,2122636,CCD3,14X,260 PARK VIEW TER,Oakland,CA
414884,6/27/12 11:07,Phone or Email,Streets - Potholes/Depression,STREETSW,37.83266461,-122.2588391,OPEN,,,Open,6053749,2130427,CCD1,12X,44TH ST & SHAFTER AV,Oakland,CA
414462,6/25/12 10:30,SeeClickFix,Streets - Potholes/Depression,STREETSW,37.80952263,-122.2738914,OPEN,,,Open,6049243,2122084,CCD3,04X,MARTIN LUTHER KING JR WY & 19TH ST,Oakland,CA
414261,6/22/12 12:30,SeeClickFix,Streets - Street Deterioration,STREETSW,37.72941166,-122.194362,OPEN,,,Open,6071686,2092493,CCD7,31Y,185 98TH AV,Oakland,CA
413914,6/20/12 11:01,Website,Streets - Street Deterioration,STREETSW,37.84635799,-122.268537,OPEN,,,Open,6051043,2135465,CCD1,11X,61ST ST & DOVER ST,Oakland,CA
413929,6/20/12 12:03,Phone or Email,Streets - Street Deterioration,STREETSW,37.80099186,-122.2187425,OPEN,,,Open,6065115,2118681,CCD5,16Y,MACARTHUR BLVD & 38TH AV,Oakland,CA
413787,6/19/12 12:40,SeeClickFix,Streets - Potholes/Depression,STREETSW,37.79828355,-122.1995994,OPEN,,,Open,6070627,2117594,CCD4,22Y,4001 LAUREL AV,Oakland,CA
413822,6/19/12 14:36,Phone or Email,Streets - Potholes/Depression,STREETSW,37.84376896,-122.2679073,OPEN,,,Open,6051207,2134519,CCD1,11X,5804 DOVER ST,Oakland,CA
413858,6/19/12 16:33,Website,Streets/Sidewalks Maintenance - General,STREETSW,37.78593914,-122.2138567,OPEN,,,Open,6066426,2113175,CCD5,24X,35TH AV & DAVIS ST,Oakland,CA
413353,6/15/12 13:40,SeeClickFix,Pothole (report from SeeClickFix),STREETSW,37.86162462,-122.2241696,OPEN,,,Open,6063954,2140784,CCD1,13Y,7145 MARLBOROUGH TER,Oakland,CA
413105,6/14/12 09:29,Phone or Email,Streets - Potholes/Depression,STREETSW,37.76056945,-122.1405215,OPEN,,,Open,6087453,2103559,CCD7,35Y,218 SEQUOYAH VIEW DR,Oakland,CA
412856,6/13/12 08:29,Phone or Email,Streets - Potholes/Depression,STREETSW,37.81447476,-122.2429624,OPEN,,,Open,6058210,2123719,CCD2,14Y,WARFIELD AV & PRINCE ST,Oakland,CA
412865,6/13/12 08:51,Phone or Email,Streets - Potholes/Depression,STREETSW,37.76661448,-122.140565,OPEN,,,Open,6087479,2105760,CCD7,35Y,4396 BRIAR CLIFF RD,Oakland,CA
412999,6/13/12 13:45,Website,Streets/Sidewalks - Curb & Gutter Repair,STREETSW,37.75992431,-122.1727421,OPEN,,,Open,6078136,2103489,CCD6,30X,81ST AV & OLIVE ST,Oakland,CA
412674,6/12/12 10:38,Phone or Email,Streets - Street Deterioration,STREETSW,37.83264398,-122.1907308,OPEN,,,Open,6073415,2130057,CCD4,13Z,6609 GUNN DR,Oakland,CA
412778,6/12/12 15:00,SeeClickFix,Streets - Potholes/Depression,STREETSW,37.75328614,-122.1850261,OPEN,,,Open,6074542,2101136,CCD7,33X,RUDSDALE ST & 81ST AV,Oakland,CA
412421,6/11/12 06:54,Website,Streets - Potholes/Depression,STREETSW,37.80932986,-122.2248489,OPEN,,,Open,6063407,2121749,CCD5,16Y,1050 NORWOOD AVE,Oakland,CA
412410,6/10/12 18:20,Website,Streets - Potholes/Depression,STREETSW,37.80008747,-122.1969786,OPEN,,,Open,6071396,2118237,CCD4,22Y,4128 RETTIG AVE,Oakland,CA
412411,6/10/12 18:26,Website,Streets - Potholes/Depression,STREETSW,37.80015432,-122.1969144,OPEN,,,Open,6071415,2118261,CCD4,22Y,4138 RETTIG AVE,Oakland,CA
412412,6/10/12 18:30,Website,Streets - Potholes/Depression,STREETSW,37.80008747,-122.1969786,OPEN,,,Open,6071396,2118237,CCD4,22Y,4128 RETTIG AV,Oakland,CA
412287,6/8/12 14:02,Phone or Email,Streets/Sidewalks - Pooling Water,STREETSW,37.78031011,-122.196634,OPEN,,,Open,6071365,2111035,CCD4,28X,2900 MONTICELLO AV,Oakland,CA
412288,6/8/12 14:04,Phone or Email,Streets/Sidewalks - Curb & Gutter Repair,STREETSW,37.78031011,-122.196634,OPEN,,,Open,6071365,2111035,CCD4,28X,2900 MONTICELLO AV,Oakland,CA
412315,6/8/12 15:57,Phone or Email,Streets/Sidewalks - Curb & Gutter Repair,STREETSW,37.81731233,-122.252963,OPEN,,,Open,6055341,2124806,CCD3,14X,VERNON ST & PERRY PL,Oakland,CA
412063,6/7/12 11:10,Website,Streets/Sidewalks Maintenance - General,STREETSW,37.80911654,-122.2247851,OPEN,,,Open,6063424,2121671,CCD5,16Y,1067 NORWOOD AVE,Oakland,CA
412091,6/7/12 13:32,Phone or Email,Streets - Potholes/Depression,STREETSW,37.80791595,-122.2234866,OPEN,,,Open,6063791,2121227,CCD5,16Y,GREENWOOD AV & NORWOOD AV,Oakland,CA
412106,6/7/12 14:27,Website,Streets - Potholes/Depression,STREETSW,37.81376854,-122.2474467,OPEN,,,Open,6056910.07,2123486.05,CCD2,14Y,460 VALLE VISTA AV,Oakland,CA
411856,6/6/12 14:19,Phone or Email,Streets - Street Deterioration,STREETSW,37.7829327,-122.2033423,OPEN,,,Open,6069444,2112025,CCD4,24Y,WALNUT ST & HIGH ST,Oakland,CA
411390,6/4/12 09:23,Phone or Email,Streets - Potholes/Depression,STREETSW,37.77517488,-122.1883188,OPEN,,,Open,6073734,2109122,CCD6,29X,2933 58TH AV,Oakland,CA
411428,6/4/12 11:21,Phone or Email,Streets/Sidewalks - Pooling Water,STREETSW,37.8394881,-122.218356,OPEN,,,Open,6065484,2132694,CCD4,13Y,149 CAPRICORN AV,Oakland,CA
411458,6/4/12 12:16,Website,Streets - Speed Bump Repair,STREETSW,37.79083321,-122.2146619,OPEN,,,Open,6066226,2114961,CCD5,21Y,3255 BONA ST,Oakland,CA
411495,6/4/12 15:27,Website,Streets - Potholes/Depression,STREETSW,37.7985156,-122.1995078,OPEN,,,Open,6070655,2117678,CCD4,22Y,4011 LAUREL AV,Oakland,CA
411534,6/4/12 20:10,SeeClickFix,Streets - Street Deterioration,STREETSW,37.74957796,-122.1291572,OPEN,,,Open,6090668,2099500,CCD7,35Y,11041 ETTRICK ST,Oakland,CA
411172,6/1/12 09:36,Phone or Email,Streets - Potholes/Depression,STREETSW,37.80372489,-122.2386077,OPEN,,,Open,6059395,2119782,CCD2,15X,HOME PL E & MCKINLEY AV,Oakland,CA
411275,6/1/12 16:20,Website,Streets - Street Deterioration,STREETSW,37.84174859,-122.2092852,OPEN,,,Open,6068118,2133469,CCD1,13Y,272 BEAUFOREST DRIVE,Oakland,CA
411103,5/31/12 14:53,Phone or Email,Streets - Potholes/Depression,STREETSW,37.8358197,-122.1962476,OPEN,,,Open,6071843,2131242,CCD4,13Z,6827 RIDGEWOOD,Oakland,CA
410764,5/30/12 09:20,SeeClickFix,Streets/Sidewalks Maintenance - General,STREETSW,37.80739117,-122.2204866,OPEN,,,Open,6064654,2121020,CCD5,16Y,4336 EVANS AV,Oakland,CA
410779,5/30/12 09:40,SeeClickFix,Streets - Potholes/Depression,STREETSW,37.83703995,-122.2517395,OPEN,,,Open,6055828.815,2131981.439,CCD1,12Y,5250 DESMOND ST,Oakland,CA
410841,5/30/12 11:49,Phone or Email,Streets - Potholes/Depression,STREETSW,37.80953082,-122.2068816,OPEN,,,Open,6068598,2121727,CCD4,22X,2117 FUNSTON PL,Oakland,CA
410915,5/30/12 15:23,Phone or Email,Streets - Potholes/Depression,STREETSW,37.84176404,-122.2304623,OPEN,,,Open,6062004,2133587,CCD1,13X,COCHRANE AV & FLORENCE AV,Oakland,CA
410930,5/30/12 16:00,SeeClickFix,Pothole (report from SeeClickFix),STREETSW,37.84053147,-122.278079,OPEN,,,Open,6048248,2133396,CCD1,10X,996 AILEEN ST,Oakland,CA
410964,5/30/12 19:30,SeeClickFix,Streets - Potholes/Depression,STREETSW,37.85162147,-122.2422727,OPEN,,,Open,6058661,2137239,CCD1,12Y,6762 MANOR CREST,Oakland,CA
410655,5/29/12 12:40,Website,Streets - Potholes/Depression,STREETSW,37.84103377,-122.2590444,OPEN,,,Open,6053747,2133475,CCD1,12Y,CLIFTON ST & CLAREMONT AV,Oakland,CA
410667,5/29/12 13:29,Phone or Email,Streets/Sidewalks Maintenance - General,STREETSW,37.83052143,-122.2719172,OPEN,,,Open,6049958,2129718,CCD1,10Y,4020 LUSK ST,Oakland,CA
410727,5/29/12 21:20,SeeClickFix,Streets - Potholes/Depression,STREETSW,37.78722274,-122.2294128,OPEN,,,Open,6061940,2113725,CCD5,21X,2416 E 21ST ST,Oakland,CA
410472,5/27/12 07:52,Website,Streets - Potholes/Depression,STREETSW,37.81212586,-122.207876,OPEN,,,Open,6068328,2122677,CCD4,22X,BYWOOD DR & WRENN ST,Oakland,CA
410497,5/27/12 15:20,SeeClickFix,Streets - Potholes/Depression,STREETSW,37.75043221,-122.1907674,OPEN,,,Open,6072863.641,2100126.933,CCD7,33X,810 81ST AVE,Oakland,CA
410352,5/25/12 11:50,Website,Streets - Potholes/Depression,STREETSW,37.80878885,-122.1837827,OPEN,,,Open,6075265,2121336,CCD4,22Y,3153 ROBINSON DR,Oakland,CA
410424,5/25/12 16:42,Website,Streets - Street Deterioration,STREETSW,37.82468418,-122.1895592,OPEN,,,Open,6073701,2127153,CCD4,13Z,6595 LONGWALK DRIVE,Oakland,CA
410432,5/25/12 21:20,SeeClickFix,Streets - Potholes/Depression,STREETSW,37.8417298,-122.2475096,OPEN,,,Open,6057082,2133666,CCD1,13X,5619 MANILA AV,Oakland,CA
410256,5/24/12 16:20,Phone or Email,Streets - Street Deterioration,STREETSW,37.80266055,-122.2059724,OPEN,,,Open,6068815,2119221,CCD4,22X,3897 RHODA AV,Oakland,CA
409966,5/22/12 18:50,SeeClickFix,Streets - Street Deterioration,STREETSW,37.82324074,-122.2566005,OPEN,,,Open,6054331,2126984,CCD3,09X,PIEDMONT AV & W MACARTHUR BLVD,Oakland,CA
409602,5/21/12 07:18,Website,Streets - Potholes/Depression,STREETSW,37.80217172,-122.244086,OPEN,,,Open,6057802,2119246,CCD2,15X,429 MONTCLAIR AV,Oakland,CA
409624,5/21/12 09:13,Phone or Email,Sidewalk - Damage,STREETSW,37.81075807,-122.2420512,OPEN,,,Open,6058448,2122361,CCD2,16X,627 LONGRIDGE RD,Oakland,CA
409758,5/21/12 16:10,SeeClickFix,Streets - Potholes/Depression,STREETSW,37.84572413,-122.205421,OPEN,,,Open,6069260,2134896,CCD1,13Y,THORNDALE DR & JEWELL CT,Oakland,CA
409582,5/20/12 10:40,SeeClickFix,Streets - Potholes/Depression,STREETSW,37.79198909,-122.2114834,OPEN,,,Open,6067152,2115365,CCD5,21Y,3026 CURRAN AVE,Oakland,CA
409392,5/18/12 09:04,Phone or Email,Streets - Potholes/Depression,STREETSW,37.78231651,-122.2149636,OPEN,,,Open,6066082,2111862,CCD5,24X,2069 HARRINGTON AV,Oakland,CA
409396,5/18/12 09:36,Phone or Email,Streets/Sidewalks Maintenance - General,STREETSW,37.81731233,-122.252963,OPEN,,,Open,6055341,2124806,CCD3,14X,195 PERRY PL,Oakland,CA
409492,5/18/12 14:55,Phone or Email,Streets - Potholes/Depression,STREETSW,37.83199821,-122.2113255,OPEN,,,Open,6067464,2129930,CCD4,13Z,5760 COLTON BLVD,Oakland,CA
409045,5/16/12 09:32,Phone or Email,Streets - Potholes/Depression,STREETSW,37.83549819,-122.2598345,OPEN,,,Open,6053481,2131464,CCD1,12X,WEBSTER ST & 49TH ST,Oakland,CA
408362,5/10/12 14:40,Phone or Email,Streets - Potholes/Depression,STREETSW,37.75299908,-122.1747172,OPEN,,,Open,6077520,2100978,CCD7,34X,AUSEON AV & HOLLY ST,Oakland,CA
408073,5/9/12 08:42,Website,Streets - Potholes/Depression,STREETSW,37.80736916,-122.2102904,OPEN,,,Open,6067599,2120958,CCD4,22X,4055 FRUITVALE AV,Oakland,CA
408099,5/9/12 10:02,Phone or Email,Streets - Potholes/Depression,STREETSW,37.79535889,-122.2118968,OPEN,,,Open,6067055,2116594,CCD4,21Y,COOLIDGE AV & SUTER ST,Oakland,CA
408142,5/9/12 12:42,Phone or Email,Streets - Potholes/Depression,STREETSW,37.72885432,-122.1789941,OPEN,,,Open,6076126,2092210,CCD7,31Z,481 CAPISTRANO DR,Oakland,CA
408047,5/8/12 20:30,SeeClickFix,Streets/Sidewalks - Other/Complex,STREETSW,37.81612077,-122.2601195,OPEN,,,Open,6053266,2124411,CCD3,08X,100 FAIRMOUNT AVE,Oakland,CA
407792,5/7/12 11:05,Phone or Email,Streets - Potholes/Depression,STREETSW,37.8131268,-122.2445858,OPEN,,,Open,6057732,2123237,CCD2,14Y,WARFIELD AV & MANDANA BLVD,Oakland,CA
407530,5/4/12 08:54,Website,Streets/Sidewalks - Curb & Gutter Repair,STREETSW,37.79076781,-122.2167025,OPEN,,,Open,6065636,2114948,CCD5,21Y,2851 ATWELL AV,Oakland,CA
407564,5/4/12 10:08,Phone or Email,Streets - Potholes/Depression,STREETSW,37.83192005,-122.1929446,OPEN,,,Open,6072771,2129805,CCD4,13Z,6715 BANNING DR,Oakland,CA
407355,5/3/12 08:17,Phone or Email,Streets/Sidewalks - Pooling Water,STREETSW,37.80723671,-122.2345944,OPEN,,,Open,6060578,2121039,CCD2,16X,1065 TRESTLE GLEN RD,Oakland,CA
407210,5/2/12 09:07,Phone or Email,Streets/Sidewalks Maintenance - General,STREETSW,37.81634235,-122.2901135,OPEN,,,Open,6044605,2124656,CCD3,05Y,2121 PERALTA ST,Oakland,CA
406817,4/30/12 09:55,SeeClickFix,Streets - Street Deterioration,STREETSW,37.83616174,-122.2003456,OPEN,,,Open,6070662,2131388,CCD4,13Z,HEMLOCK ST & COLTON BLVD,Oakland,CA
406822,4/30/12 10:10,SeeClickFix,Streets - Potholes/Depression,STREETSW,37.84055569,-122.2123714,OPEN,,,Open,6067219,2133051,CCD4,13Y,6040 MERRIEWOOD DR,Oakland,CA
406827,4/30/12 10:21,Website,Streets - Street Deterioration,STREETSW,37.81146226,-122.2621384,OPEN,,,Open,6052651,2122726,CCD3,08X,23RD ST & HARRISON ST,Oakland,CA
406857,4/30/12 11:23,Phone or Email,Streets - Berm Repair or Install,STREETSW,37.77668211,-122.1735382,OPEN,,,Open,6078015,2109594,CCD6,29X,6521 MOKELUMNE AV,Oakland,CA
406699,4/28/12 10:51,Website,Streets/Sidewalks Maintenance - General,STREETSW,37.77472867,-122.1708608,OPEN,,,Open,6078776,2108869,CCD6,29X,6823 MOKELUMNE AV,Oakland,CA
406555,4/27/12 10:42,Phone or Email,Streets/Sidewalks Maintenance - General,STREETSW,37.84027682,-122.1997438,OPEN,,,Open,6070863,2132883,CCD4,13Z,6519 OAKWOOD DR,Oakland,CA
406656,4/27/12 16:19,Phone or Email,Streets - Potholes/Depression,STREETSW,37.77382669,-122.2359458,OPEN,,,Open,6059962,2108883,CCD5,20X,2800 FORD ST,Oakland,CA
406390,4/26/12 11:24,SeeClickFix,Streets - Street Deterioration,STREETSW,37.80769913,-122.2551387,OPEN,,,Open,6054647,2121318,CCD3,14X,ELLITA AV & BELLEVUE AV,Oakland,CA
406254,4/25/12 14:34,Phone or Email,Streets - Street Deterioration,STREETSW,37.83342982,-122.2150711,OPEN,,,Open,6066392,2130471,CCD4,13Z,1659  MOUNTAIN BLVD,Oakland,CA
405767,4/23/12 08:52,Phone or Email,Streets - Street Deterioration,STREETSW,37.77343173,-122.2331059,OPEN,,,Open,6060780,2108724,CCD5,20X,CHAPMAN ST & PETERSON ST,Oakland,CA
405784,4/23/12 09:42,SeeClickFix,Streets - Potholes/Depression,STREETSW,37.81705001,-122.247385,OPEN,,,Open,6056950.19,2124680.37,CCD2,14Y,583 MIRA VISTA AVE,Oakland,CA
405690,4/22/12 12:02,SeeClickFix,Streets - Potholes/Depression,STREETSW,37.82260746,-122.1886116,OPEN,,,Open,6073961,2126392,CCD4,13Z,MELVILLE DR & TOTTERDELL ST,Oakland,CA
405696,4/22/12 14:13,Website,Streets - Potholes/Depression,STREETSW,37.8288884,-122.2575064,OPEN,,,Open,6054108,2129045,CCD1,12X,4100-4112 MANILA AVE,Oakland,CA
405296,4/19/12 05:36,Website,Streets - Potholes/Depression,STREETSW,37.79067636,-122.2165689,OPEN,,,Open,6065674,2114914,CCD5,21Y,2848 ATWELL AV,Oakland,CA
405300,4/19/12 06:28,SeeClickFix,Streets - Potholes/Depression,STREETSW,37.81218551,-122.2432272,OPEN,,,Open,6058118,2122887,CCD2,14Y,ERIE ST & MANDANA BLVD,Oakland,CA
405319,4/19/12 09:06,Phone or Email,Streets - Potholes/Depression,STREETSW,37.81560333,-122.242615,OPEN,,,Open,6058318,2124128,CCD2,14Y,SCOTT ST & WELDON AV,Oakland,CA
405325,4/19/12 09:27,Phone or Email,Streets - Potholes/Depression,STREETSW,37.83327504,-122.1888612,OPEN,,,Open,6073959,2130277,CCD4,13Z,6778 AITKEN DR,Oakland,CA
405461,4/19/12 23:59,Website,Streets - Potholes/Depression,STREETSW,37.81139531,-122.2717411,OPEN,,,Open,6049877,2122754,CCD3,04X,597 22ND ST,Oakland,CA
405285,4/18/12 19:20,SeeClickFix,Streets - Potholes/Depression,STREETSW,37.81750539,-122.2388058,OPEN,,,Open,6059431,2124800,CCD2,14Y,610 BOULEVARD WY,Oakland,CA
404801,4/16/12 11:06,Phone or Email,Streets - Street Deterioration,STREETSW,37.82560805,-122.2484944,OPEN,,,Open,6056688,2127802,CCD1,09X,95 LINDA AV,Oakland,CA
404820,4/16/12 12:25,Phone or Email,Streets - Street Deterioration,STREETSW,37.84931825,-122.2388308,OPEN,,,Open,6059639,2136382,CCD1,13X,35 BUENA VISTA AV,Oakland,CA
404679,4/15/12 11:49,Website,Streets - Potholes/Depression,STREETSW,37.83313241,-122.2122867,OPEN,,,Open,6067194,2130348,CCD4,13Z,5766 CABOT DR,Oakland,CA
404617,4/14/12 12:12,SeeClickFix,Streets - Street Deterioration,STREETSW,37.7946641,-122.2441595,OPEN,,,Open,6057729.83,2116513.175,CCD2,17X,1900 BLOCK OF 11TH AVENUE,Oakland,CA
404256,4/10/12 15:20,Phone or Email,Streets/Sidewalks - Pooling Water,STREETSW,37.75428089,-122.1596383,OPEN,,,Open,6081887,2101367,CCD7,35X,9211 THERMAL ST,Oakland,CA
404272,4/10/12 16:32,SeeClickFix,Streets - Street Deterioration,STREETSW,37.79903856,-122.2492153,OPEN,,,Open,6056299,2118133,CCD2,17X,E 19TH ST & 5TH AV,Oakland,CA
403513,4/5/12 09:08,SeeClickFix,Streets - Street Deterioration,STREETSW,37.79620885,-122.2161603,OPEN,,,Open,6065829,2116926,CCD4,21Y,3153 CHAMPION ST,Oakland,CA
403473,4/4/12 16:58,SeeClickFix,Streets/Sidewalks - Pooling Water,STREETSW,37.8457029,-122.2407344,OPEN,,,Open,6059065,2135076,CCD1,13X,5972 MARGARIDO DR,Oakland,CA
403094,4/3/12 09:04,SeeClickFix,Streets - Potholes/Depression,STREETSW,37.79434307,-122.218284,OPEN,,,Open,6065203,2116258,CCD5,21Y,2718 NICOL AV,Oakland,CA
403097,4/3/12 09:08,SeeClickFix,Streets - Street Deterioration,STREETSW,37.7936744,-122.2162921,OPEN,,,Open,6065774,2116004,CCD5,21Y,CAPP ST & NICOL AV,Oakland,CA
403264,4/3/12 20:08,Website,Streets - Street Deterioration,STREETSW,37.78692993,-122.184945,OPEN,,,Open,6074786,2113384,CCD4,25X,4733 WILKIE ST,Oakland,CA
402948,4/2/12 10:41,Phone or Email,Streets/Sidewalks - Pooling Water,STREETSW,37.76982553,-122.1537295,OPEN,,,Open,6083695,2106996,CCD7,35Y,4128 KENTWOOD CT,Oakland,CA
402849,4/1/12 15:36,SeeClickFix,Streets - Street Deterioration,STREETSW,37.81231046,-122.2607043,OPEN,,,Open,6053071,2123027,CCD3,14X,16 VERNON ST,Oakland,CA
402686,3/29/12 14:40,Phone or Email,Streets/Sidewalks Maintenance - General,STREETSW,37.75534293,-122.1879442,OPEN,,,Open,6073712,2101900,CCD7,26Y,1143 77TH AV,Oakland,CA
402467,3/28/12 09:28,Phone or Email,Streets/Sidewalks - Curb & Gutter Repair,STREETSW,37.81183715,-122.2297612,OPEN,,,Open,6062005,2122688,CCD2,16X,780-901 CARLSTON AV,Oakland,CA
402532,3/28/12 13:27,Phone or Email,Streets - Potholes/Depression,STREETSW,37.80447682,-122.1967882,OPEN,,,Open,6071480,2119834,CCD4,22Y,FRYE ST & MAPLE AV,Oakland,CA
401965,3/23/12 13:44,Website,Streets - Street Deterioration,STREETSW,37.80600387,-122.262722,OPEN,,,Open,6052445,2120742,CCD3,04X,JACKSON ST & LAKESIDE DR,Oakland,CA
401981,3/23/12 16:16,SeeClickFix,Streets - Street Deterioration,STREETSW,37.82722118,-122.2688948,OPEN,,,Open,6050808,2128500,CCD1,06X,640 W MACARTHUR BLVD,Oakland,CA
401669,3/21/12 11:48,Phone or Email,Streets - Street Deterioration,STREETSW,37.85125611,-122.2394825,OPEN,,,Open,6059464,2137091,CCD1,12Y,6925 CHABOT RD,Oakland,CA
401588,3/20/12 19:26,SeeClickFix,Streets - Street Deterioration,STREETSW,37.80925075,-122.2076333,OPEN,,,Open,6068379,2121629,CCD4,22X,CLEMENS RD & FRUITVALE AV,Oakland,CA
401162,3/17/12 14:59,Website,Streets/Sidewalks - Curb & Gutter Repair,STREETSW,37.84909988,-122.2027586,OPEN,,,Open,6070051,2136111,CCD1,13Y,SKYLINE BLVD & OBSERVATION PL,Oakland,CA
401030,3/16/12 08:24,Website,Streets - Potholes/Depression,STREETSW,37.82218657,-122.2561912,OPEN,,,Open,6054442,2126598,CCD3,09X,3626 RICHMOND BLVD,Oakland,CA
401133,3/16/12 16:08,SeeClickFix,Streets/Sidewalks - Pooling Water,STREETSW,37.81240255,-122.2629986,OPEN,,,Open,6052409,2123073,CCD3,08X,2359 WAVERLY ST,Oakland,CA
400960,3/15/12 13:44,Phone or Email,Streets/Sidewalks - Pooling Water,STREETSW,37.74651596,-122.1830565,OPEN,,,Open,6075067,2098661,CCD7,33X,910 89TH AV,Oakland,CA
400661,3/14/12 09:26,SeeClickFix,Streets/Sidewalks - Pooling Water,STREETSW,37.79279454,-122.2680367,OPEN,,,Open,6050819,2115962,CCD3,01X,2ND ST & OAK ST,Oakland,CA
400690,3/14/12 10:18,Website,Streets - Street Deterioration,STREETSW,37.865899,-122.2310842,OPEN,,,Open,6061987,2142377,CCD1,13Y,ALVARADO RD & CLAREMONT AV,Oakland,CA
400793,3/14/12 15:15,Phone or Email,Streets/Sidewalks - Pooling Water,STREETSW,37.83813909,-122.2579091,OPEN,,,Open,6054055,2132415,CCD1,12Y,459 CAVOUR ST,Oakland,CA
400841,3/14/12 18:42,Website,Streets/Sidewalks - Pooling Water,STREETSW,37.81705767,-122.2501351,OPEN,,,Open,6056156,2124698,CCD2,14Y,CHETWOOD ST & SANTA CLARA AV,Oakland,CA
400248,3/9/12 19:10,SeeClickFix,Streets/Sidewalks - Pooling Water,STREETSW,37.79792155,-122.2767125,OPEN,,,Open,6048348,2117876,CCD3,01X,4TH ST & WASHINGTON ST,Oakland,CA
399996,3/8/12 09:43,Phone or Email,Streets/Sidewalks - Curb & Gutter Repair,STREETSW,37.81175513,-122.2605527,OPEN,,,Open,6053111,2122824,CCD3,14X,140 BAY PL,Oakland,CA
400097,3/8/12 18:16,SeeClickFix,Streets - Potholes/Depression,STREETSW,37.84373751,-122.2298121,OPEN,,,Open,6062205,2134302,CCD1,13X,6350 CONTRA COSTA RD,Oakland,CA
399796,3/7/12 08:23,Phone or Email,Streets/Sidewalks - Pooling Water,STREETSW,37.80318766,-122.2706555,OPEN,,,Open,6050134,2119760,CCD2,03X,409 13TH ST,Oakland,CA
399074,2/29/12 15:12,SeeClickFix,Streets/Sidewalks - Pooling Water,STREETSW,37.81233354,-122.2628377,OPEN,,,Open,6052455,2123047,CCD3,08X,2356 WAVERLY ST,Oakland,CA
398889,2/28/12 13:18,Phone or Email,Streets/Sidewalks - Pooling Water,STREETSW,37.80573787,-122.2747808,OPEN,,,Open,6048960,2120711,CCD3,04X,14TH ST & JEFFERSON ST,Oakland,CA
398917,2/28/12 14:54,Phone or Email,Streets - Berm Repair or Install,STREETSW,37.74875081,-122.1522676,OPEN,,,Open,6083982,2099316,CCD7,32Y,2809 99TH AV,Oakland,CA
398933,2/28/12 16:04,Phone or Email,Streets/Sidewalks - Curb & Gutter Repair,STREETSW,37.83763851,-122.2623141,OPEN,,,Open,6052779.73,2132256.68,CCD1,11X,5151 TELEGRAPH AV,Oakland,CA
398603,2/26/12 16:40,SeeClickFix,Streets/Sidewalks Maintenance - General,STREETSW,37.84958198,-122.2434823,OPEN,,,Open,6058298,2136503,CCD1,12Y,5815 PATTON ST,Oakland,CA
398516,2/24/12 12:16,Website,City Bldg - Structural Issue,STREETSW,37.80910025,-122.2490196,OPEN,,,Open,6056424,2121795,CCD3,14X,LAKEVIEW LIBRARY,Oakland,CA
398549,2/24/12 15:24,Website,Streets - Street Deterioration,STREETSW,37.74715593,-122.1535674,OPEN,,,Open,6083596,2098742,CCD7,32Y,BURR ST & LAWLOR ST,Oakland,CA
398345,2/23/12 11:52,SeeClickFix,Streets - Potholes/Depression,STREETSW,37.7882599,-122.2078186,OPEN,,,Open,6068186,2113988,CCD4,24Y,ALLENDALE AV & OCTAVIA ST,Oakland,CA
398178,2/22/12 11:20,Website,Streets - Potholes/Depression,STREETSW,37.79906806,-122.2173064,OPEN,,,Open,6065517,2117973,CCD4,22X,2120 MONTANA ST,Oakland,CA
397924,2/21/12 08:54,SeeClickFix,Streets - Street Deterioration,STREETSW,37.80280027,-122.2004817,OPEN,,,Open,6070402,2119243,CCD4,22Y,2900-2910 CARLSEN ST,Oakland,CA
397956,2/21/12 09:54,SeeClickFix,Streets - Potholes/Depression,STREETSW,37.779945,-122.2048069,OPEN,,,Open,6069001,2110945,CCD4,27X,4633 FAIRFAX AVE,Oakland,CA
397987,2/21/12 11:20,SeeClickFix,Streets - Street Deterioration,STREETSW,37.84547465,-122.2563232,OPEN,,,Open,6054563,2135077,CCD1,12Y,5855 COLBY ST,Oakland,CA
398025,2/21/12 13:22,SeeClickFix,Streets - Potholes/Depression,STREETSW,37.81649464,-122.2464239,OPEN,,,Open,6057224,2124473,CCD2,14Y,601 VALLE VISTA AVE,Oakland,CA
397868,2/20/12 11:42,SeeClickFix,Streets - Potholes/Depression,STREETSW,37.84524781,-122.2397434,OPEN,,,Open,6059348,2134905,CCD1,13X,6033 MANCHESTER DR,Oakland,CA
397826,2/18/12 09:22,SeeClickFix,Streets - Street Deterioration,STREETSW,37.81786613,-122.203351,OPEN,,,Open,6069673,2124743,CCD4,22X,2555 MOUNTAIN BLVD,Oakland,CA
397712,2/17/12 09:06,SeeClickFix,Streets - Potholes/Depression,STREETSW,37.8225107,-122.2071662,OPEN,,,Open,6068602,2126454,CCD4,13Z,2251-2345 SCOUT RD,Oakland,CA
397722,2/17/12 09:49,Phone or Email,Streets/Sidewalks - Curb & Gutter Repair,STREETSW,37.77223483,-122.1687112,OPEN,,,Open,6079381,2107950,CCD6,30Y,7331 HILLMONT DR,Oakland,CA
397572,2/16/12 09:24,SeeClickFix,Streets/Sidewalks - Pooling Water,STREETSW,37.8052302,-122.2652309,OPEN,,,Open,6051715,2120474,CCD3,04X,266 17TH ST,Oakland,CA
397211,2/14/12 10:24,Phone or Email,Streets - Potholes/Depression,STREETSW,37.80549215,-122.1815131,OPEN,,,Open,6075899,2120124,CCD4,22Y,ROBINSON DR & BUTTERS DR,Oakland,CA
397156,2/13/12 22:16,SeeClickFix,Streets - Street Deterioration,STREETSW,37.81790498,-122.2531917,OPEN,,,Open,6055279,2125023,CCD3,14X,176 PERRY PL,Oakland,CA
397099,2/12/12 17:35,Website,Streets - Potholes/Depression,STREETSW,37.8091131,-122.1948965,OPEN,,,Open,6072057,2121512,CCD4,22Y,8 BURDECK COURT,Oakland,CA
397030,2/10/12 14:53,Website,Streets - Street Deterioration,STREETSW,37.77791954,-122.1965033,OPEN,,,Open,6071387,2110164,CCD4,28X,2751 RAWSON ST,Oakland,CA
396912,2/9/12 13:33,Website,Streets - Street Deterioration,STREETSW,37.74246725,-122.1465002,OPEN,,,Open,6085609,2096999,CCD7,32Y,DURANT AV & FOOTHILL BLVD,Oakland,CA
396810,2/8/12 14:36,Website,Streets - Berm Repair or Install,STREETSW,37.77967587,-122.1764539,OPEN,,,Open,6077192,2110699,CCD6,29X,6125 HILLMONT DR,Oakland,CA
396567,2/7/12 05:30,Website,Streets - Potholes/Depression,STREETSW,37.79367911,-122.2101066,OPEN,,,Open,6067561,2115973,CCD4,21Y,SCHOOL ST & CURRAN AV,Oakland,CA
396686,2/7/12 14:47,Website,Streets - Street Deterioration,STREETSW,37.81269502,-122.2146668,OPEN,,,Open,6066370.42,2122920.08,CCD4,22X,PARK BLVD & LEIMERT BLVD,Oakland,CA
396707,2/7/12 15:58,Phone or Email,Streets - Street Deterioration,STREETSW,37.81270416,-122.1995972,OPEN,,,Open,6070723,2122844,CCD4,22X,MOUNTAIN BLVD & DUBLIN AV,Oakland,CA
396501,2/6/12 13:05,Phone or Email,Streets - Potholes/Depression,STREETSW,37.80912976,-122.1885647,OPEN,,,Open,6073886,2121485,CCD4,22Y,3255 CRANE WY,Oakland,CA
396512,2/6/12 13:37,Phone or Email,Streets - Street Deterioration,STREETSW,37.83648181,-122.2082322,OPEN,,,Open,6068387,2131546,CCD4,13Z,ASPINWALL RD & GOULDIN RD,Oakland,CA
396377,2/4/12 17:02,SeeClickFix,Streets - Potholes/Depression,STREETSW,37.80814163,-122.1829322,OPEN,,,Open,6075506.432,2121095.95,CCD4,22Y,3220 ROBINSON DR,Oakland,CA
396313,2/3/12 13:13,Phone or Email,Streets/Sidewalks - Pooling Water,STREETSW,37.76664863,-122.1400848,OPEN,,,Open,6087618,2105770,CCD7,35Y,4422 BRIAR CLIFF RD,Oakland,CA
396050,2/1/12 13:08,Phone or Email,Streets/Sidewalks - Curb & Gutter Repair,STREETSW,37.79902712,-122.2729726,OPEN,,,Open,6049436,2118258,CCD2,03X,FRANKLIN ST & 7TH ST,Oakland,CA
395954,1/31/12 15:36,Phone or Email,Streets - Potholes/Depression,STREETSW,37.84283935,-122.2488173,OPEN,,,Open,6056712,2134077,CCD4,22Y,MAPLE AV & FRYE ST,Oakland,CA
395482,1/27/12 08:49,Phone or Email,Streets/Sidewalks - Pooling Water,STREETSW,37.82451361,-122.18977,OPEN,,,Open,6073639,2127092,CCD4,13Z,6577 LONGWALK DR,Oakland,CA
395351,1/26/12 08:56,Phone or Email,Streets/Sidewalks Maintenance - General,STREETSW,37.80656812,-122.1873363,OPEN,,,Open,6074224,2120546,CCD4,22Y,3210 BRUNELL DR,Oakland,CA
395204,1/25/12 09:14,SeeClickFix,Streets/Sidewalks - Pooling Water,STREETSW,37.80618888,-122.2683453,OPEN,,,Open,6050822,2120840,CCD3,04X,394 17TH ST,Oakland,CA
395220,1/25/12 09:49,Phone or Email,Streets - Street Deterioration,STREETSW,37.84093643,-122.2000983,OPEN,,,Open,6070765,2133125,CCD4,13Z,6585 OAKWOOD DR,Oakland,CA
394902,1/23/12 11:16,Phone or Email,Streets/Sidewalks - Pooling Water,STREETSW,37.81113191,-122.2453767,OPEN,,,Open,6057490,2122515,CCD2,14Y,714 RAND AV,Oakland,CA
394931,1/23/12 12:29,Phone or Email,Streets/Sidewalks Maintenance - General,STREETSW,37.82850108,-122.1896357,OPEN,,,Open,6073704,2128543,CCD4,13Z,6637 EXETER DR,Oakland,CA
394754,1/20/12 15:41,Website,Streets - Potholes/Depression,STREETSW,37.8092159,-122.1940506,OPEN,,,Open,6072302,2121545,CCD4,22Y,2995 BURDECK CT,Oakland,CA
394406,1/18/12 09:16,Phone or Email,Streets - Street Deterioration,STREETSW,37.7625401,-122.1514499,OPEN,,,Open,6084307,2104332,CCD7,35X,8755 FONTAINE ST,Oakland,CA
394232,1/17/12 11:26,Phone or Email,Streets - Potholes/Depression,STREETSW,37.83776953,-122.2057993,OPEN,,,Open,6069098,2132002,CCD4,13Z,15 VISTA DEL MAR CT,Oakland,CA
394123,1/15/12 09:47,Website,Streets - Berm Repair or Install,STREETSW,37.81008975,-122.2408064,OPEN,,,Open,6058803,2122111,CCD2,16X,677 LONGRIDGE RD,Oakland,CA
393383,1/8/12 12:47,Website,Streets - Potholes/Depression,STREETSW,37.78049128,-122.2097615,OPEN,,,Open,6067573,2111170,CCD5,24X,2219 ROSEDALE AV,Oakland,CA
392943,1/4/12 13:09,Phone or Email,Streets - Potholes/Depression,STREETSW,37.80486759,-122.2382329,CLOSED,,1/5/12 08:04,0,6059511,2120196,CCD2,15X,ALMA AV & MC KINLEY AV,Oakland,CA
393147,1/5/12 12:02,Phone or Email,Streets - Potholes/Depression,STREETSW,37.77583239,-122.2067508,CLOSED,,1/6/12 08:14,0,6068412,2109458,CCD5,27X,47TH AV & ELLEN ST,Oakland,CA
393150,1/5/12 12:36,Phone or Email,Streets - Potholes/Depression,STREETSW,37.81191542,-122.2354654,CLOSED,,1/6/12 08:09,0,6060358,2122747,CCD2,16X,PALOMA AV & SANTA RAY AV,Oakland,CA
393151,1/5/12 12:45,Phone or Email,Streets - Potholes/Depression,STREETSW,37.78516232,-122.2316803,CLOSED,,1/6/12 09:24,0,6061271,2112987,CCD5,21X,1742 24TH AV,Oakland,CA
395154,1/24/12 15:05,Website,Streets/Sidewalks Maintenance - General,STREETSW,37.78808894,-122.2392454,CLOSED,,1/25/12 08:44,0,6059105,2114093,CCD2,18X,1912 FOOTHILL BLVD,Oakland,CA
396099,2/2/12 07:40,Website,Streets - Potholes/Depression,STREETSW,37.80562328,-122.3033396,CLOSED,,2/2/12 08:40,0,6040710,2120827,CCD3,02Y,NB 7TH OFFRP ST,Oakland,CA
396608,2/7/12 10:42,Phone or Email,Streets - Potholes/Depression,STREETSW,37.80861945,-122.2780521,CLOSED,,2/7/12 15:13,0,6048035,2121778,CCD3,05X,767 16TH ST,Oakland,CA
398550,2/24/12 15:36,Phone or Email,Streets/Sidewalks Maintenance - General,STREETSW,37.82636823,-122.2587956,CLOSED,,2/24/12 15:50,0,6053718.5,2128134.5,CCD1,08X,MANILA AV & 38TH ST,Oakland,CA
399112,3/1/12 08:38,Phone or Email,Streets - Potholes/Depression,STREETSW,37.84918101,-122.2835481,CLOSED,,3/1/12 12:01,0,6046729,2136575,CCD1,10X,1057 66TH ST,Oakland,CA
400795,3/14/12 15:21,Phone or Email,Streets - Mudslides / Landslides,STREETSW,37.82848782,-122.1888354,CLOSED,,3/15/12 13:50,0,6073935,2128534,CCD4,13Z,6699 EXETER DR,Oakland,CA
401273,3/19/12 10:30,Phone or Email,Streets - Mudslides / Landslides,STREETSW,37.85159049,-122.20699,CLOSED,,3/19/12 10:38,0,6068846,2137040,,13Y,6400 GRIZZLY PEAK BLVD,Oakland,CA
401275,3/19/12 10:32,Phone or Email,Streets - Mudslides / Landslides,STREETSW,37.84712523,-122.2048332,CLOSED,,3/19/12 10:37,0,6069439,2135403,CCD1,13Y,6525 THORNDALE DR,Oakland,CA
401625,3/21/12 09:05,Phone or Email,Streets - Potholes/Depression,STREETSW,37.74076265,-122.1657665,CLOSED,,3/21/12 16:10,0,6080028,2096477,CCD7,32X,1615 104TH AV,Oakland,CA
402215,3/26/12 16:11,Website,Streets - Potholes/Depression,STREETSW,37.82423672,-122.2644051,CLOSED,,3/27/12 11:38,0,6052084,2127389,CCD3,08X,465 36TH ST,Oakland,CA
402492,3/28/12 10:26,Phone or Email,Streets - Potholes/Depression,STREETSW,37.7407802,-122.1656908,CLOSED,,3/28/12 15:20,0,6080050,2096483,CCD7,32X,1615 104TH AV,Oakland,CA
403953,4/9/12 09:18,Phone or Email,Streets - Potholes/Depression,STREETSW,37.76636788,-122.2106647,CLOSED,,4/9/12 13:26,0,6067218,2106033,CCD6,26X,1040 51ST AV,Oakland,CA
404221,4/10/12 12:14,Phone or Email,Streets - Potholes/Depression,STREETSW,37.7525008,-122.1759549,CLOSED,,4/10/12 15:11,0,6077159,2100803,CCD7,34X,1449 AUSEON AV,Oakland,CA
404521,4/12/12 13:38,Phone or Email,Streets - Potholes/Depression,STREETSW,37.80923727,-122.2249817,CLOSED,,4/12/12 19:50,0,6063368,2121716,CCD5,16Y,1049 NORWOOD AV,Oakland,CA
405339,4/19/12 10:21,Phone or Email,Streets - Potholes/Depression,STREETSW,37.81155386,-122.2622583,CLOSED,,4/19/12 15:01,0,6052617,2122760,CCD3,08X,206 23RD ST,Oakland,CA
406076,4/24/12 13:30,SeeClickFix,Street Issue (report from SeeClickFix),STREETSW,37.74281229,-122.1990198,CLOSED,,4/24/12 14:31,0,6070427.77,2097396.04,CCD7,31X,7901 OAKPORT ST,Oakland,CA
406332,4/26/12 08:13,Phone or Email,Streets - Potholes/Depression,STREETSW,37.74794696,-122.1710957,CLOSED,,4/26/12 10:59,0,6078534,2099120,CCD7,34X,1537 94TH AV,Oakland,CA
406775,4/30/12 08:30,SeeClickFix,Streets - Potholes/Depression,STREETSW,37.81853542,-122.2499518,CLOSED,,4/30/12 15:51,0,6056219,2125235,CCD2,14Y,580 VERNON ST.,Oakland,CA
407722,5/7/12 07:33,Website,Streets - Potholes/Depression,STREETSW,37.79678765,-122.2541089,CLOSED,,5/7/12 13:37,0,6054870,2117340,CCD2,19X,1408 4TH AV,Oakland,CA
407879,5/7/12 16:24,Phone or Email,Streets - Potholes/Depression,STREETSW,37.82552806,-122.2070694,CLOSED,,5/7/12 22:14,0,6068650,2127552,CCD4,13Y,COLTON BLVD & SNAKE RD,Oakland,CA
409261,5/17/12 10:37,Phone or Email,Streets - Potholes/Depression,STREETSW,37.771798,-122.2074644,CLOSED,,5/17/12 11:58,0,6068179,2107993,CCD4,27X,1701 FREMONT WY,Oakland,CA
411231,6/1/12 13:50,SeeClickFix,Streets - Potholes/Depression,STREETSW,37.79198909,-122.2114834,CLOSED,,6/1/12 20:40,0,6067152,2115365,CCD5,21Y,3026 CURRAN AVE,Oakland,CA
412290,6/8/12 14:10,Phone or Email,Streets - Potholes/Depression,STREETSW,37.78662061,-122.2303887,CLOSED,,6/8/12 14:58,0,6061654,2113511,CCD5,21X,24TH AV & E 20TH ST,Oakland,CA
412701,6/12/12 11:22,Phone or Email,Streets - Potholes/Depression,STREETSW,37.79169683,-122.183319,CLOSED,,6/12/12 14:03,0,6075287,2115111,CCD4,25X,4430 REINHARDT DR,Oakland,CA
413562,6/18/12 11:10,Phone or Email,Streets/Sidewalks Maintenance - General,STREETSW,37.81147059,-122.2667226,CLOSED,,6/18/12 11:11,0,6051327,2122754,CCD3,04X,BROADWAY & W GRAND AV,Oakland,CA
413812,6/19/12 14:12,Phone or Email,Streets - Potholes/Depression,STREETSW,37.79157701,-122.2426188,CLOSED,,6/20/12 08:00,0,6058154,2115381,CCD2,18X,1718 15TH AVENUE,Oakland,CA
413951,6/20/12 13:30,Phone or Email,Streets - Potholes/Depression,STREETSW,37.77402327,-122.1785583,CLOSED,,6/20/12 15:38,0,6076547,2108652,CCD6,29X,3420 64TH AV PL,Oakland,CA
414955,6/27/12 15:37,Phone or Email,Streets - Potholes/Depression,STREETSW,37.74847253,-122.1617052,CLOSED,,6/27/12 19:06,0,6081252,2099263,CCD7,35X,BANCROFT AV & 98TH AV,Oakland,CA
415231,6/29/12 11:01,Website,Streets - Potholes/Depression,STREETSW,37.80730655,-122.2678145,CLOSED,,6/29/12 16:24,0,6050983,2121244,CCD3,04X,FRANKLIN ST & 19TH ST,Oakland,CA
417862,7/18/12 13:17,Phone or Email,Streets - Potholes/Depression,STREETSW,37.84395836,-122.2239184,CLOSED,,7/18/12 14:31,0,6063908,2134351,CCD1,13Y,642 MOUNTAIN BLVD,Oakland,CA
423953,8/31/12 12:42,Phone or Email,Streets/Sidewalks - Curb & Gutter Repair,STREETSW,37.80430881,-122.2711739,CLOSED,,8/31/12 15:08,0,6049992,2120171,CCD3,03Y,14TH ST & BROADWAY,Oakland,CA
429435,10/11/12 15:10,SeeClickFix,Streets - Potholes/Depression,STREETSW,37.80929255,-122.2681768,CLOSED,,10/12/12 11:18,0,6050892,2121969,CCD3,04X,2021 BROADWAY,Oakland,CA
430982,10/23/12 08:36,Phone or Email,Streets - Potholes/Depression,STREETSW,37.78275468,-122.2127865,CLOSED,,10/23/12 11:14,0,6066714,2112010,CCD5,24X,2165 RANSOM AV,Oakland,CA
435405,11/27/12 12:30,Phone or Email,Streets - Potholes/Depression,STREETSW,37.79754488,-122.2363514,CLOSED,,11/27/12 14:20,0,6060005,2117520,CCD2,17Y,1340 E 26TH ST,Oakland,CA
435683,11/28/12 18:00,SeeClickFix,Streets - Potholes/Depression,STREETSW,37.79767484,-122.1937977,CLOSED,,11/29/12 16:05,0,6072299,2117342,CCD4,25X,35TH AV & LIBBY CT,Oakland,CA
436031,11/30/12 14:46,Phone or Email,Streets/Sidewalks - Curb & Gutter Repair,STREETSW,37.72952003,-122.1908334,CLOSED,,11/30/12 15:01,0,6072707,2092514,CCD7,31Y,9850 EMPIRE RD,Oakland,CA
437947,12/12/12 13:22,Phone or Email,Streets - Potholes/Depression,STREETSW,37.80096199,-122.2011008,CLOSED,,12/12/12 16:01,0,6070211,2118577,CCD4,22Y,3006 SYLVAN AV,Oakland,CA
438819,12/18/12 15:50,Phone or Email,Streets - Potholes/Depression,STREETSW,37.8104499,-122.2394819,CLOSED,,12/19/12 11:36,0,6059188,2122235,CCD2,16X,MANDANA BLVD & CALMAR AV,Oakland,CA
439669,12/28/12 15:29,Phone or Email,Streets - Potholes/Depression,STREETSW,37.8244206,-122.2090365,CLOSED,,12/28/12 15:39,0,6068074.585,2127159.183,CCD4,13Z,MOUNTAIN @ SNAKE,Oakland,CA
397378,2/15/12 09:14,SeeClickFix,Streets - Potholes/Depression,STREETSW,37.73629578,-122.1379865,CLOSED,,2/16/12 11:06,1,6088031,2094709,CCD7,35Y,3021 REVERE AV,Oakland,CA
399952,3/7/12 17:12,SeeClickFix,Streets - Potholes/Depression,STREETSW,37.84291333,-122.2525322,CLOSED,,3/9/12 15:59,1,6055640,2134124,CCD1,12Y,332 FOREST,Oakland,CA
400062,3/8/12 15:02,Phone or Email,Streets - Potholes/Depression,STREETSW,37.73458977,-122.1393877,CLOSED,,3/9/12 16:10,1,6087615,2094095,CCD7,35Y,FOOTHILL BLVD & MARLOW DR,Oakland,CA
400687,3/14/12 10:04,Phone or Email,Streets - Mudslides / Landslides,STREETSW,37.865899,-122.2310842,CLOSED,,3/15/12 13:41,1,6061987,2142377,CCD1,13Y,CLAREMONT AV & ALVARADO RD,Oakland,CA
400720,3/14/12 11:20,Phone or Email,Streets - Mudslides / Landslides,STREETSW,37.86026413,-122.2208398,CLOSED,,3/15/12 15:59,1,6064906,2140271,CCD1,13Y,BUCKINGHAM BLVD & TUNNEL RD,Oakland,CA
405027,4/17/12 14:14,Phone or Email,Streets - Potholes/Depression,STREETSW,37.8349842,-122.2124438,CLOSED,,4/18/12 15:51,1,6067161,2131023,CCD4,13Y,5777 GRISBORNE AV,Oakland,CA
407428,5/3/12 12:49,Website,Streets - Potholes/Depression,STREETSW,37.74421903,-122.1660896,CLOSED,,5/4/12 12:57,1,6079957,2097737,CCD7,32X,9931 PLYMOUTH ST,Oakland,CA
407708,5/6/12 18:20,SeeClickFix,Streets - Guardrail Repair,STREETSW,37.77755514,-122.1885943,CLOSED,,5/8/12 09:19,1,6073670,2109990,CCD6,29X,3050 55TH AVE,Oakland,CA
410726,5/29/12 20:30,SeeClickFix,Streets - Potholes/Depression,STREETSW,37.83597197,-122.2731383,CLOSED,,5/31/12 10:56,1,6049643,2131709,CCD1,10Y,4700 MARKET ST,Oakland,CA
411414,6/4/12 10:38,Phone or Email,Streets - Potholes/Depression,STREETSW,37.83777357,-122.2766275,CLOSED,,6/5/12 14:03,1,6048648,2132384,CCD1,10X,966 53RD ST,Oakland,CA
411483,6/4/12 14:22,Phone or Email,Streets - Potholes/Depression,STREETSW,37.75601569,-122.1667278,CLOSED,,6/6/12 13:53,1,6079849,2102035,CCD7,35X,2227 87TH AV,Oakland,CA
412770,6/12/12 14:41,Phone or Email,Streets - Potholes/Depression,STREETSW,37.77798603,-122.2128011,CLOSED,,6/13/12 16:02,1,6066678,2110274,CCD5,24X,4069 MERA ST,Oakland,CA
413100,6/14/12 09:08,Phone or Email,Streets - Potholes/Depression,STREETSW,37.80244288,-122.2387439,CLOSED,,6/15/12 12:32,1,6059347,2119316,CCD2,17Y,2820 8TH AV,Oakland,CA
413997,6/20/12 16:22,Phone or Email,Streets - Potholes/Depression,STREETSW,37.76711606,-122.199388,CLOSED,,6/21/12 16:38,1,6070482,2106246,CCD6,27Y,5743 E 16TH ST,Oakland,CA
414620,6/25/12 19:10,SeeClickFix,Streets - Potholes/Depression,STREETSW,37.85894881,-122.2305825,CLOSED,,6/27/12 16:11,1,6062085,2139844,CCD1,13Y,1280 GRAND VIEW DR,Oakland,CA
415082,6/28/12 10:55,SeeClickFix,Streets - Potholes/Depression,STREETSW,37.83447386,-122.2601877,CLOSED,,6/29/12 15:41,1,6053372,2131093,CCD1,12X,4815 WEBSTER ST,Oakland,CA
420794,8/8/12 10:38,Website,Streets - Potholes/Depression,STREETSW,37.78188106,-122.2109044,CLOSED,,8/9/12 13:29,1,6067252,2111682,CCD5,24X,2234 39TH AV,Oakland,CA
423425,8/28/12 14:40,SeeClickFix,Streets - Potholes/Depression,STREETSW,37.82732157,-122.249823,CLOSED,,8/30/12 07:59,1,6056316,2128433,CCD1,09X,33 ENTRADA AV,Oakland,CA
425292,9/12/12 14:01,Website,Streets - Potholes/Depression,STREETSW,37.81912747,-122.261846,CLOSED,,9/14/12 12:45,1,6052788,2125515,CCD3,08X,3068 BROADWAY,Oakland,CA
430778,10/22/12 09:25,Website,Streets - Potholes/Depression,STREETSW,37.8353931,-122.187112,CLOSED,,10/23/12 13:18,1,6074478,2131039,CCD4,13Z,SHEPHERD CANYON RD & EASTWOOD CT,Oakland,CA
432019,10/30/12 12:47,Phone or Email,Streets - Potholes/Depression,STREETSW,37.75612634,-122.1805999,CLOSED,,11/1/12 12:24,1,6075840,2102147,CCD7,26Y,81ST AV & INTERNATIONAL BLVD,Oakland,CA
437529,12/10/12 13:51,Phone or Email,Streets - Potholes/Depression,STREETSW,37.81601665,-122.2956387,CLOSED,,12/11/12 15:58,1,6043007,2124568,CCD3,05Y,WOOD ST & 18TH ST,Oakland,CA
394865,1/23/12 10:00,Phone or Email,Streets/Sidewalks - Cross-Culvert Repair,STREETSW,37.80940147,-122.1941345,CLOSED,,1/25/12 14:53,2,6072279,2121613,CCD4,22Y,2988 BURDECK DR,Oakland,CA
400311,3/12/12 08:41,Phone or Email,Streets/Sidewalks - Pooling Water,STREETSW,37.85125611,-122.2394825,CLOSED,,3/14/12 09:04,2,6059464,2137091,CCD1,12Y,6925 CHABOT RD,Oakland,CA
405595,4/20/12 15:22,SeeClickFix,Streets - Potholes/Depression,STREETSW,37.79363477,-122.239988,CLOSED,,4/23/12 15:13,2,6058928,2116116,CCD2,18X,1430 E 21ST ST,Oakland,CA
408873,5/15/12 09:36,Phone or Email,Streets - Potholes/Depression,STREETSW,37.76636788,-122.2106647,CLOSED,,5/17/12 10:41,2,6067218,2106033,CCD6,26X,1040 51ST AV,Oakland,CA
409814,5/22/12 08:20,Phone or Email,Streets - Potholes/Depression,STREETSW,37.75438254,-122.1757482,CLOSED,,5/24/12 14:36,2,6077231,2101487,CCD6,34X,85TH AV & HOLLY ST,Oakland,CA
417280,7/16/12 08:00,Website,Streets - Potholes/Depression,STREETSW,37.78992607,-122.2288182,CLOSED,,7/18/12 13:23,2,6062130,2114706,CCD5,21X,2343 INYO AV,Oakland,CA
425195,9/12/12 09:15,Phone or Email,Streets/Sidewalks - Curb & Gutter Repair,STREETSW,37.83139005,-122.2457112,CLOSED,,9/15/12 06:44,2,6057531,2129892,CCD1,09X,4466 PIEDMONT AV,Oakland,CA
425270,9/12/12 12:30,Phone or Email,Streets/Sidewalks - Curb & Gutter Repair,STREETSW,37.74362042,-122.1699572,CLOSED,,9/15/12 06:41,2,6078835,2097539,CCD7,32X,99TH AV & INTERNATIONAL BLVD,Oakland,CA
436492,12/3/12 19:50,SeeClickFix,Streets - Potholes/Depression,STREETSW,37.80190367,-122.2432662,CLOSED,,12/6/12 13:05,2,6058037,2119144,CCD2,17Y,2460 PARK BLVD,Oakland,CA
438744,12/18/12 11:38,Phone or Email,Streets - Mudslides / Landslides,STREETSW,37.84623248,-122.2116677,CLOSED,,12/21/12 09:07,2,6067460,2135114,CCD1,13Y,6988 PINEHAVEN RD,Oakland,CA
399610,3/5/12 21:18,SeeClickFix,Streets - Potholes/Depression,STREETSW,37.8156159,-122.2070042,CLOSED,,3/9/12 15:24,3,6068603,2123943,CCD4,22X,1909 OAK CREST DR,Oakland,CA
400380,3/12/12 12:46,Website,Streets - Potholes/Depression,STREETSW,37.82984537,-122.2065418,CLOSED,,3/15/12 15:58,3,6068831,2129121,CCD4,13Z,6133 SNAKE ROAD,Oakland,CA
404067,4/9/12 13:58,Phone or Email,Fence - Repair or Install Along Street,STREETSW,37.77458917,-122.2155708,CLOSED,,4/12/12 15:51,3,6065855,2109052,CCD5,23X,4100 E 16TH ST,Oakland,CA
405465,4/20/12 07:48,Website,Streets - Potholes/Depression,STREETSW,37.79076781,-122.2167025,CLOSED,,4/23/12 13:29,3,6065636,2114948,CCD5,21Y,2851 ATWELL AV,Oakland,CA
405492,4/20/12 09:20,SeeClickFix,Streets - Potholes/Depression,STREETSW,37.84787407,-122.2643263,CLOSED,,4/23/12 14:33,3,6052269,2135994,CCD1,11X,577 62ND ST,Oakland,CA
408423,5/11/12 08:40,SeeClickFix,Streets - Potholes/Depression,STREETSW,37.83430756,-122.253832,CLOSED,,5/14/12 15:54,3,6055206,2130998,CCD1,12X,4960 DESMOND ST,Oakland,CA
414169,6/21/12 20:08,Website,Streets - Potholes/Depression,STREETSW,37.81513047,-122.2379885,CLOSED,,6/25/12 19:43,3,6059651,2123931,CCD2,16X,600 WALAVISTA AV,Oakland,CA
416974,7/12/12 10:34,Phone or Email,Streets - Potholes/Depression,STREETSW,37.84135133,-122.2785385,CLOSED,,7/16/12 09:41,3,6048121,2133697,CCD1,10X,5718 LOS ANGELES ST,Oakland,CA
423080,8/26/12 07:32,Website,Streets - Mudslides / Landslides,STREETSW,30.00989965,-141.218751,CLOSED,,8/29/12 16:55,3,0,0,CCD1,13Y,GRIZZLY PEAK BLVD & MARLBOROUGH TER,Oakland,CA
426220,9/18/12 16:33,Phone or Email,Streets - Potholes/Depression,STREETSW,37.83730486,-122.2576711,CLOSED,,9/22/12 07:26,3,6054118,2132110,CCD1,12Y,5160 SHAFTER AV,Oakland,CA
428874,10/9/12 08:55,Phone or Email,Streets - Guardrail Repair,STREETSW,37.76642283,-122.1576017,CLOSED,,10/12/12 15:50,3,6082554,2105777,,30Y,MCCORMICK AV & STERLING DR,Oakland,CA
393048,1/5/12 08:32,Phone or Email,Streets - Potholes/Depression,STREETSW,37.7693204,-122.1729814,CLOSED,,1/9/12 09:41,4,6078128,2106911,CCD6,29X,FIRE STATION 23,Oakland,CA
398451,2/24/12 08:28,Phone or Email,Streets - Potholes/Depression,STREETSW,37.79745228,-122.2364843,CLOSED,,2/28/12 13:41,4,6059966,2117487,CCD2,17Y,1333 E 26TH ST,Oakland,CA
399420,3/4/12 22:16,SeeClickFix,Streets - Potholes/Depression,STREETSW,37.80753163,-122.1818016,CLOSED,,3/9/12 15:20,4,6075829,2120868,CCD4,22Y,3321 ROBINSON DR,Oakland,CA
399427,3/5/12 08:12,Phone or Email,Streets - Potholes/Depression,STREETSW,37.84113625,-122.2094615,CLOSED,,3/9/12 15:55,4,6068063,2133247,CCD4,13Y,6217 THORNHILL DR,Oakland,CA
400088,3/8/12 17:44,SeeClickFix,Streets - Potholes/Depression,STREETSW,37.8169225,-122.2505439,CLOSED,,3/13/12 13:53,4,6056037,2124651,CCD2,14Y,487 CHETWOOD ST,Oakland,CA
400344,3/12/12 10:04,Phone or Email,Streets - Potholes/Depression,STREETSW,37.79354353,-122.2513462,CLOSED,,3/16/12 12:19,4,6055646,2116144,CCD2,19X,INTERNATIONAL BLVD & 8TH AV,Oakland,CA
405324,4/19/12 09:23,Phone or Email,Streets - Potholes/Depression,STREETSW,37.78852585,-122.2315822,CLOSED,,4/23/12 14:13,4,6061322,2114211,CCD5,21X,2304 E 21 STREET,Oakland,CA
425913,9/17/12 12:23,Phone or Email,Streets - Street Deterioration,STREETSW,37.79053414,-122.2462702,CLOSED,,9/21/12 15:10,4,6057092,2115021,CCD2,19X,13TH AV & E 15TH ST,Oakland,CA
427206,9/26/12 08:50,SeeClickFix,Streets - Potholes/Depression,STREETSW,37.84057495,-122.2180383,CLOSED,,10/1/12 08:01,4,6065583,2133088,CCD1,13Y,7030 BROADWAY TER,Oakland,CA
436308,12/3/12 09:06,Phone or Email,Streets - Mudslides / Landslides,STREETSW,37.83391547,-122.1920897,CLOSED,,12/7/12 15:13,4,6073031,2130527,CCD4,13Z,SARONI DR & SHEPHERD CANYON RD,Oakland,CA
396134,2/2/12 09:41,Phone or Email,Streets - Potholes/Depression,STREETSW,37.81290497,-122.2213588,CLOSED,,2/8/12 07:38,5,6064439,2123032,CCD5,16Y,1720 TRESTLE GLEN RD,Oakland,CA
396997,2/10/12 09:10,SeeClickFix,Streets - Potholes/Depression,STREETSW,37.8225107,-122.2071662,CLOSED,,2/15/12 09:56,5,6068602,2126454,CCD4,13Z,2251-2345 SCOUT RD,Oakland,CA
399189,3/1/12 13:40,SeeClickFix,Streets - Potholes/Depression,STREETSW,37.79892107,-122.2166487,CLOSED,,3/6/12 14:52,5,6065706,2117916,CCD4,22X,3320-3398 FRUITVALE AVE,Oakland,CA
399963,3/8/12 06:03,Website,Streets - Potholes/Depression,STREETSW,37.81187606,-122.2127901,CLOSED,,3/13/12 13:42,5,6066907,2122612,CCD4,22X,LEIMERT BLVD & CLEMENS RD,Oakland,CA
403960,4/9/12 09:38,Phone or Email,Streets/Sidewalks - Curb & Gutter Repair,STREETSW,37.83117997,-122.2459867,CLOSED,,4/14/12 14:01,5,6057450,2129817,CCD1,09X,4454 PIEDMONT AV,Oakland,CA
405582,4/20/12 14:13,Phone or Email,Streets - Potholes/Depression,STREETSW,37.84497532,-122.272633,CLOSED,,4/26/12 13:38,5,6049851,2134984,CCD1,10Y,844 60TH ST,Oakland,CA
411740,6/6/12 08:40,Phone or Email,Streets/Sidewalks - Curb & Gutter Repair,STREETSW,37.77725621,-122.1960244,CLOSED,,6/11/12 12:51,5,6071521,2109920,CCD4,28X,2721 KINGSLAND AV,Oakland,CA
416671,7/10/12 15:01,Phone or Email,Streets - Guardrail Repair,STREETSW,37.80861381,-122.2758743,CLOSED,,7/16/12 14:11,5,6048664,2121764,CCD3,04X,17TH ST & CASTRO ST,Oakland,CA
416789,7/11/12 11:20,Phone or Email,Streets - Potholes/Depression,STREETSW,37.75739635,-122.1941526,CLOSED,,7/17/12 08:58,5,6071931,2102680,CCD7,26Y,1000 70TH AV,Oakland,CA
422867,8/23/12 15:16,Phone or Email,Streets - Potholes/Depression,STREETSW,37.734038,-122.172782,CLOSED,,8/29/12 08:28,5,6077956,2094065,CCD7,32X,BLENHEIM ST & SAN LEANDRO ST,Oakland,CA
437561,12/10/12 15:49,Phone or Email,Streets - Potholes/Depression,STREETSW,37.79585415,-122.2112713,CLOSED,,12/16/12 10:40,5,6067239,2116771,CCD4,21Y,3300 COOLIDGE AV,Oakland,CA
392745,1/3/12 14:04,Website,Streets - Potholes/Depression,STREETSW,37.84693424,-122.284994,CLOSED,,1/9/12 16:18,6,6046296,2135765,CCD1,10X,ALCATRAZ AV & SAN PABLO AV,Oakland,CA
396117,2/2/12 08:47,Phone or Email,Streets - Potholes/Depression,STREETSW,37.80198349,-122.205306,CLOSED,,2/8/12 10:24,6,6069003,2118971,CCD4,22X,3873 COOLIDGE AV,Oakland,CA
398943,2/28/12 16:27,Phone or Email,Streets - Potholes/Depression,STREETSW,37.78749334,-122.2351127,CLOSED,,3/6/12 14:41,6,6060295,2113854,CCD2,18X,22ND AV & COMMERCE WY,Oakland,CA
404261,4/10/12 15:47,Phone or Email,Streets - Potholes/Depression,STREETSW,37.85138225,-122.2324013,CLOSED,,4/16/12 16:07,6,6061509,2137099,CCD1,13Y,HILLER DR & TUNNEL RD,Oakland,CA
407083,5/1/12 10:34,Phone or Email,Streets/Sidewalks - Curb & Gutter Repair,STREETSW,37.75550323,-122.1518158,CLOSED,,5/8/12 09:46,6,6084156,2101772,CCD7,35X,9540 CASTLEWOOD ST,Oakland,CA
422414,8/20/12 20:39,Website,Streets - Guardrail Repair,STREETSW,37.79485441,-122.1758827,CLOSED,,8/27/12 09:51,6,6077456,2116222,CCD6,25Y,CAMPUS DR & REDWOOD RD,Oakland,CA
394569,1/19/12 09:57,Phone or Email,Streets - Potholes/Depression,STREETSW,37.76010967,-122.1911283,CLOSED,,1/26/12 15:06,7,6072823,2103652,CCD7,26Y,69TH AV & HERBERT GUICE WAY,Oakland,CA
398986,2/29/12 09:58,Website,Streets - Potholes/Depression,STREETSW,37.79192534,-122.2461818,CLOSED,,3/7/12 14:54,7,6057127,2115527,CCD2,19X,FOOTHILL BLVD & 12TH AV,Oakland,CA
399282,3/2/12 10:14,Website,Streets - Potholes/Depression,STREETSW,37.84234616,-122.2845096,CLOSED,,3/9/12 15:51,7,6046404,2134092,CCD1,10X,59TH ST & MARSHALL ST,Oakland,CA
399286,3/2/12 10:18,Website,Streets - Potholes/Depression,STREETSW,37.84539681,-122.285487,CLOSED,,3/9/12 16:01,7,6046143,2135208,CCD1,10X,63RD ST & MARSHALL ST,Oakland,CA
399585,3/5/12 16:18,Phone or Email,Streets - Potholes/Depression,STREETSW,37.75696274,-122.187808,CLOSED,,3/13/12 13:39,7,6073762,2102489,CCD7,26Y,1200 75TH AV,Oakland,CA
400977,3/15/12 14:43,Phone or Email,Streets - Potholes/Depression,STREETSW,37.79924865,-122.2625928,CLOSED,,3/23/12 13:44,7,6052436,2118282,CCD2,03X,12TH ST & FALLON ST,Oakland,CA
414444,6/25/12 09:55,Phone or Email,Streets/Sidewalks Maintenance - General,STREETSW,37.73437754,-122.1821175,CLOSED,,7/3/12 08:08,7,6075259,2094237,CCD7,31Y,STONEFORD AV & MADDUX DR,Oakland,CA
418364,7/23/12 10:51,SeeClickFix,Streets/Sidewalks - Curb & Gutter Repair,STREETSW,37.80765852,-122.2685222,CLOSED,,7/30/12 12:48,7,6050781,2121376,CCD3,04X,430 19TH ST,Oakland,CA
422537,8/21/12 14:53,Phone or Email,Streets - Potholes/Depression,STREETSW,37.77367143,-122.1897276,CLOSED,,8/29/12 09:31,7,6073317,2108582,CCD6,29X,5745 MORSE DR,Oakland,CA
428421,10/4/12 11:00,Phone or Email,Streets/Sidewalks Maintenance - General,STREETSW,37.76399453,-122.1971818,CLOSED,,10/11/12 15:09,7,6071099,2105098,CCD6,26Y,62ND AV & INTERNATIONAL BLVD,Oakland,CA
431104,10/23/12 12:54,Phone or Email,Streets - Potholes/Depression,STREETSW,37.79565184,-122.2661628,CLOSED,,10/30/12 15:28,7,6051380,2116992,CCD2,03X,610 OAK ST,Oakland,CA
435478,11/27/12 15:52,Phone or Email,Streets - Potholes/Depression,STREETSW,37.83222053,-122.26393,CLOSED,,12/5/12 12:34,7,6052276,2130293,CCD1,12X,517 44TH ST,Oakland,CA
437582,12/10/12 18:08,Website,Streets - Guardrail Repair,STREETSW,37.86042293,-122.2323283,CLOSED,,12/18/12 14:51,7,6061591,2140390,CCD1,13Y,530 GRAVATT DR,Oakland,CA
397860,2/20/12 07:56,SeeClickFix,Streets - Potholes/Depression,STREETSW,37.78733798,-122.1948045,CLOSED,,2/28/12 14:17,8,6071940,2113584,CCD4,25X,MACARTHUR BLVD & HIGH ST,Oakland,CA
399088,2/29/12 16:27,Phone or Email,Streets - Potholes/Depression,STREETSW,37.84406639,-122.2547901,CLOSED,,3/9/12 15:21,8,6054996,2134556,CCD1,12Y,442 FOREST ST,Oakland,CA
400785,3/14/12 14:55,Phone or Email,Streets - Potholes/Depression,STREETSW,37.7910675,-122.2443825,CLOSED,,3/23/12 13:39,8,6057641,2115205,CCD2,17X,14TH AV & FOOTHILL BLVD,Oakland,CA
428393,10/4/12 09:36,Website,Streets/Sidewalks Maintenance - General,STREETSW,37.83315044,-122.1889311,CLOSED,,10/12/12 09:49,8,6073938,2130232,CCD4,13Z,6779 AITKEN DR,Oakland,CA
436618,12/4/12 12:11,Phone or Email,Streets - Mudslides / Landslides,STREETSW,37.84475423,-122.2041102,CLOSED,,12/12/12 14:06,8,6069632,2134536,CCD1,13Y,THORNDALE DR & LAURISTON CT,Oakland,CA
393613,1/10/12 09:06,Phone or Email,Streets - Potholes/Depression,STREETSW,37.84398631,-122.2772092,CLOSED,,1/19/12 10:31,9,6048523,2134649,CCD1,10X,954 60TH ST,Oakland,CA
397392,2/15/12 09:40,Phone or Email,Streets - Mudslides / Landslides,STREETSW,37.82883307,-122.2089219,CLOSED,,2/24/12 15:58,9,6068137,2128765,CCD4,13Z,1901 MAGELLAN DR,Oakland,CA
397844,2/19/12 12:59,Website,Streets - Potholes/Depression,STREETSW,37.86837499,-122.2178437,CLOSED,,2/29/12 10:23,9,6065825,2143208,CCD1,13Y,GRIZZLY PEAK BLVD & FISH RANCH RD,Oakland,CA
397899,2/21/12 08:06,Phone or Email,Streets - Potholes/Depression,STREETSW,37.79517343,-122.1998432,CLOSED,,3/1/12 08:41,9,6070536,2116463,CCD4,22Y,MIDVALE AV & KANSAS ST,Oakland,CA
399009,2/29/12 10:41,SeeClickFix,Streets - Potholes/Depression,STREETSW,37.7995741,-122.21764,CLOSED,,3/9/12 15:34,9,6065424,2118159,CCD4,22X,2101 BIENATI WAY,Oakland,CA
403485,4/4/12 17:58,SeeClickFix,Streets/Sidewalks Maintenance - General,STREETSW,37.83217892,-122.2678113,CLOSED,,4/14/12 13:58,9,6051155,2130299,CCD1,10Y,MARTIN LUTHER KING JR WY & 43RD ST,Oakland,CA
403527,4/5/12 09:42,Phone or Email,Streets - Potholes/Depression,STREETSW,37.78782695,-122.2456355,CLOSED,,4/14/12 13:55,9,6057257,2114032,CCD2,19X,1541 E 12TH ST,Oakland,CA
409041,5/16/12 09:20,Phone or Email,Streets/Sidewalks Maintenance - General,STREETSW,37.79056276,-122.2288572,CLOSED,,5/25/12 14:42,9,6062123,2114938,CCD5,21X,2322 E 24TH ST,Oakland,CA
418720,7/25/12 09:41,Website,Streets - Potholes/Depression,STREETSW,37.81464039,-122.274592,CLOSED,,8/3/12 14:26,9,6049076,2123951,CCD3,07X,SAN PABLO AV & 24TH ST,Oakland,CA
421820,8/16/12 09:01,Phone or Email,Streets - Potholes/Depression,STREETSW,37.75155189,-122.1542706,CLOSED,,8/25/12 11:10,9,6083421,2100346,CCD7,35X,STEARNS AV & 98TH AV,Oakland,CA
425703,9/14/12 16:47,Phone or Email,Streets - Potholes/Depression,STREETSW,37.78178863,-122.196391,CLOSED,,9/24/12 14:07,9,6071445,2111572,CCD4,28X,3134 KNOWLAND,Oakland,CA
395724,1/30/12 12:08,Phone or Email,Streets - Potholes/Depression,STREETSW,37.77467107,-122.2154169,CLOSED,,2/9/12 15:31,10,6065900,2109081,CCD5,23X,1627 41ST AV,Oakland,CA
399184,3/1/12 13:12,Phone or Email,Streets - Guardrail Repair,STREETSW,37.75310419,-122.1965594,CLOSED,,3/12/12 10:00,10,6071207,2101130,CCD7,31X,SAN LEANDRO ST & 73RD AV,Oakland,CA
401859,3/22/12 16:20,SeeClickFix,Streets/Sidewalks - Curb & Gutter Repair,STREETSW,37.80224419,-122.2723882,CLOSED,,4/2/12 13:53,10,6049627,2119426,CCD2,03X,1100-1198 BROADWAY,Oakland,CA
402280,3/27/12 09:32,SeeClickFix,Streets - Potholes/Depression,STREETSW,37.84808501,-122.2345343,CLOSED,,4/6/12 18:18,10,6060871,2135910,CCD1,13X,6500 BROADWAY,Oakland,CA
402782,3/31/12 12:39,Website,Streets - Potholes/Depression,STREETSW,37.79448893,-122.239063,CLOSED,,4/10/12 16:10,10,6059201,2116422,CCD2,17Y,E 22ND ST & 14TH AV,Oakland,CA
403336,4/4/12 11:15,Phone or Email,Streets - Potholes/Depression,STREETSW,37.78412494,-122.208838,CLOSED,,4/14/12 14:05,10,6067864,2112488,CCD4,24X,3825 LYON AV,Oakland,CA
403732,4/6/12 10:50,Website,Streets - Potholes/Depression,STREETSW,37.74847253,-122.1617052,CLOSED,,4/16/12 15:22,10,6081252,2099263,CCD7,35X,BANCROFT AV & 98TH AV,Oakland,CA
404525,4/12/12 13:50,SeeClickFix,Streets - Potholes/Depression,STREETSW,37.81456416,-122.2369019,CLOSED,,4/23/12 11:09,10,6059961,2123719,CCD2,16X,631 WALAVISTA AVE,Oakland,CA
409941,5/22/12 15:45,Phone or Email,Streets - Guardrail Repair,STREETSW,37.75421212,-122.1522161,CLOSED,,6/2/12 06:36,10,6084032,2101304,CCD7,35X,9529 GOLF LINKS RD,Oakland,CA
421571,8/14/12 16:04,Phone or Email,Streets - Potholes/Depression,STREETSW,37.7440343,-122.1856465,CLOSED,,8/24/12 19:53,10,6074302,2097771,CCD7,31Y,8933 SAN LEANDRO ST,Oakland,CA
429480,10/12/12 08:35,Phone or Email,Streets/Sidewalks - Cross-Culvert Repair,STREETSW,37.83359605,-122.2119477,CLOSED,,10/22/12 10:44,10,6067295,2130515,CCD4,13Z,5732 CABOT DR,Oakland,CA
403126,4/3/12 11:00,SeeClickFix,Streets/Sidewalks Maintenance - General,STREETSW,37.82630367,-122.2090853,CLOSED,,4/14/12 14:03,11,6068073,2127845,CCD4,13Z,2068 ANTIOCH CT,Oakland,CA
403410,4/4/12 14:41,Phone or Email,Streets - Potholes/Depression,STREETSW,37.81081706,-122.2589897,CLOSED,,4/16/12 14:13,11,6053556,2122474,CCD3,14X,310 PARK VIEW TER,Oakland,CA
405316,4/19/12 08:40,SeeClickFix,Streets - Potholes/Depression,STREETSW,37.81555033,-122.2400654,CLOSED,,5/1/12 09:36,12,6059054,2124095,CCD2,14Y,FAIRBANKS AV & KENMORE AV,Oakland,CA
412401,6/10/12 11:20,SeeClickFix,Streets/Sidewalks - Curb & Gutter Repair,STREETSW,37.79985965,-122.1885477,CLOSED,,6/22/12 11:31,12,6073830,2118110,CCD4,22Y,4344 DETROIT AVE,Oakland,CA
421956,8/16/12 16:19,Phone or Email,Streets/Sidewalks - Curb & Gutter Repair,STREETSW,37.77367143,-122.1897276,CLOSED,,8/29/12 09:29,12,6073317,2108582,CCD6,29X,5745 MORSE DR,Oakland,CA
399285,3/2/12 10:16,Website,Streets/Sidewalks Maintenance - General,STREETSW,37.84056148,-122.2839159,CLOSED,,3/15/12 16:03,13,6046563,2133439,CCD1,10X,STANFORD AV & MARSHALL ST,Oakland,CA
429965,10/16/12 09:01,SeeClickFix,Streets/Sidewalks - Curb & Gutter Repair,STREETSW,37.77426364,-122.2186846,CLOSED,,10/29/12 09:59,13,6064953,2108950,CCD5,23X,3924 INTERNATIONAL BLVD,Oakland,CA
429969,10/16/12 09:10,SeeClickFix,Streets/Sidewalks - Curb & Gutter Repair,STREETSW,37.77569502,-122.2216765,CLOSED,,10/29/12 09:57,13,6064098,2109487,CCD5,23X,3612 INTERNATIONAL BLVD,Oakland,CA
429976,10/16/12 09:30,SeeClickFix,Streets/Sidewalks - Curb & Gutter Repair,STREETSW,37.77718241,-122.2247771,CLOSED,,10/29/12 09:54,13,6063212,2110045,CCD5,23X,3278 INTERNATIONAL BLVD,Oakland,CA
439224,12/21/12 10:21,Phone or Email,Streets - Potholes/Depression,STREETSW,37.81254742,-122.2727588,CLOSED,,1/4/13 10:11,13,6049591,2123179,CCD3,04X,GRAND AV & WEST ST,Oakland,CA
399951,3/7/12 17:06,SeeClickFix,Streets - Potholes/Depression,STREETSW,37.84466981,-122.2561414,CLOSED,,3/22/12 13:57,14,6054610,2134783,CCD1,12Y,CLAREMONT AV & FOREST ST,Oakland,CA
401562,3/20/12 16:27,Website,Streets - Potholes/Depression,STREETSW,37.74659074,-122.1391682,CLOSED,,4/4/12 15:50,14,6087755,2098463,CCD7,35Y,1 MAGGIORA DR,Oakland,CA
401636,3/21/12 09:38,SeeClickFix,Streets - Potholes/Depression,STREETSW,37.80253803,-122.2893099,CLOSED,,4/4/12 15:46,14,6044741,2119626,CCD3,02X,1177 5TH ST,Oakland,CA
416580,7/10/12 10:17,Phone or Email,Streets/Sidewalks Maintenance - General,STREETSW,37.82383892,-122.2135025,CLOSED,,7/25/12 08:05,14,6066781,2126971,CCD4,13Z,12 PERSHING DR,Oakland,CA
396696,2/7/12 15:24,SeeClickFix,Streets - Potholes/Depression,STREETSW,37.79510798,-122.2738482,CLOSED,,2/23/12 13:08,15,6049156,2116836,CCD3,01X,200 WEBSTER ST,Oakland,CA
399678,3/6/12 12:00,Phone or Email,Streets - Potholes/Depression,STREETSW,37.83391547,-122.1920897,CLOSED,,3/21/12 15:29,15,6073031,2130527,CCD4,13Z,SARONI CT & SARONI DR,Oakland,CA
401221,3/19/12 08:52,Phone or Email,Streets - Potholes/Depression,STREETSW,37.75794529,-122.1943727,CLOSED,,4/3/12 10:48,15,6071871,2102881,CCD7,26Y,1012 69TH AV,Oakland,CA
408173,5/9/12 14:30,SeeClickFix,Streets - Potholes/Depression,STREETSW,37.79831283,-122.2154093,CLOSED,,5/24/12 15:50,15,6066060,2117688,CCD4,22X,MONTANA ST & CHAMPION ST,Oakland,CA
433906,11/14/12 11:14,Phone or Email,Streets - Potholes/Depression,STREETSW,37.84024976,-122.2574638,CLOSED,,11/30/12 09:51,15,6054198,2133181,CCD1,12Y,CLIFTON ST & MILES AV,Oakland,CA
439520,12/26/12 12:42,Website,Streets - Potholes/Depression,STREETSW,37.79448577,-122.2050473,CLOSED,,1/11/13 08:56,15,6069028,2116240,CCD4,22Y,3214 DELAWARE ST,Oakland,CA
401156,3/17/12 12:34,SeeClickFix,Streets - Potholes/Depression,STREETSW,37.73503649,-122.1721024,CLOSED,,4/2/12 13:43,16,6078159,2094425,CCD7,32X,968-998 107TH AVE,Oakland,CA
401356,3/19/12 14:26,SeeClickFix,Streets - Potholes/Depression,STREETSW,37.85111579,-122.24842,CLOSED,,4/4/12 15:43,16,6056883,2137088,CCD1,12Y,ROSS CIR & ROSS ST,Oakland,CA
408745,5/14/12 12:30,SeeClickFix,Streets - Potholes/Depression,STREETSW,37.79554252,-122.214383,CLOSED,,5/30/12 13:44,16,6066338,2116674,,21Y,BOSTON AV & SCHOOL ST,Oakland,CA
414262,6/22/12 12:33,Phone or Email,Streets/Sidewalks - Curb & Gutter Repair,STREETSW,37.84337545,-122.271618,CLOSED,,7/9/12 08:38,16,6050133,2134396,CCD1,10Y,826 58TH ST,Oakland,CA
419828,8/1/12 09:59,Phone or Email,Streets - Guardrail Repair,STREETSW,37.83306952,-122.1905535,CLOSED,,8/17/12 19:16,16,6073469,2130211,CCD4,13Z,6600 EVERGREEN AV,Oakland,CA
394852,1/23/12 09:26,Phone or Email,Streets - Potholes/Depression,STREETSW,37.77914806,-122.2267262,CLOSED,,2/9/12 15:34,17,6062662,2110771,CCD5,20X,3063 E 15TH ST,Oakland,CA
416048,7/6/12 07:31,Website,Streets - Potholes/Depression,STREETSW,37.81589006,-122.2320993,CLOSED,,7/23/12 12:38,17,6061357,2124176,CCD2,16X,1049 PARK LN,Oakland,CA
399193,3/1/12 13:48,SeeClickFix,Streets - Street Deterioration,STREETSW,37.77610356,-122.2251085,CLOSED,,3/19/12 15:39,18,6063109,2109654,CCD5,23X,3301 E 12TH ST,Oakland,CA
401370,3/19/12 15:16,SeeClickFix,Streets - Potholes/Depression,STREETSW,37.84139849,-122.224098,CLOSED,,4/6/12 18:10,18,6063839,2133420,CCD1,13Y,PINEWOOD RD & BROADWAY TER,Oakland,CA
407636,5/4/12 15:19,Phone or Email,Streets - Potholes/Depression,STREETSW,37.79354353,-122.2513462,CLOSED,,5/23/12 11:05,18,6055646,2116144,CCD2,19X,8TH AV & INTERNATIONAL BLVD,Oakland,CA
407755,5/7/12 09:22,Phone or Email,Streets - Potholes/Depression,STREETSW,37.83168641,-122.1856667,CLOSED,,5/25/12 14:09,18,6074871,2129682,CCD4,13Z,SKYLINE BLVD & PINE HILLS DR,Oakland,CA
420158,8/3/12 09:11,SeeClickFix,Streets - Potholes/Depression,STREETSW,37.84789584,-122.2434565,CLOSED,,8/21/12 11:44,18,6058294,2135889,CCD1,13X,6028 BROADWAY,Oakland,CA
404460,4/12/12 09:44,Phone or Email,Streets - Potholes/Depression,STREETSW,37.81605752,-122.2490451,CLOSED,,5/1/12 11:09,19,6056464,2124328,CCD2,14Y,328 ELWOOD AV,Oakland,CA
412886,6/13/12 09:28,Phone or Email,Streets - Potholes/Depression,STREETSW,37.77393742,-122.216189,CLOSED,,7/3/12 08:07,19,6065672,2108818,CCD5,23X,41ST AV & E 15TH ST,Oakland,CA
439070,12/20/12 11:24,Phone or Email,Streets/Sidewalks - Curb & Gutter Repair,STREETSW,37.81189061,-122.2481194,CLOSED,,1/8/13 13:02,19,6056703,2122806,CCD2,14Y,466 SANTA CLARA AV,Oakland,CA
439098,12/20/12 12:38,Phone or Email,Streets - Potholes/Depression,STREETSW,37.85013348,-122.2440806,CLOSED,,1/9/13 11:29,19,6058129,2136707,CCD1,12Y,CHABOT SCHOOL,Oakland,CA
399694,3/6/12 12:52,SeeClickFix,Streets - Potholes/Depression,STREETSW,37.80453679,-122.2330877,CLOSED,,3/27/12 10:02,20,6060995,2120048,CCD2,15X,CHATHAM RD & PARK BLVD,Oakland,CA
400981,3/15/12 14:53,Phone or Email,Streets - Potholes/Depression,STREETSW,37.74882818,-122.1750003,CLOSED,,4/4/12 15:32,20,6077411,2099461,CCD7,33X,1351 91ST,Oakland,CA
401581,3/20/12 18:23,Website,Streets - Mudslides / Landslides,STREETSW,37.84626427,-122.200158,CLOSED,,4/10/12 13:29,20,6070783,2135065,CCD1,13Y,6885 ELVERTON DR,Oakland,CA
437971,12/12/12 14:49,Website,Streets - Potholes/Depression,STREETSW,37.77424702,-122.1840551,CLOSED,,1/2/13 09:05,20,6074960,2108762,CCD6,29X,CAMDEN ST & 61ST AV,Oakland,CA
408207,5/9/12 21:00,SeeClickFix,Streets - Potholes/Depression,STREETSW,37.82702354,-122.2785692,CLOSED,,5/31/12 14:27,21,6048013,2128481,CCD3,07X,36TH ST & SAN PABLO AV,Oakland,CA
434017,11/14/12 17:59,Website,Streets/Sidewalks - Pooling Water,STREETSW,37.82198611,-122.2805573,CLOSED,,12/6/12 13:02,21,6047404,2126658,CCD3,07X,3019 CHESTNUT ST,Oakland,CA
435544,11/28/12 09:33,Phone or Email,Streets - Potholes/Depression,STREETSW,37.77366006,-122.1834189,CLOSED,,12/19/12 14:28,21,6075140,2108545,CCD6,29X,CAMDEN ST & 62ND AV,Oakland,CA
392612,1/3/12 09:36,Phone or Email,Streets - Potholes/Depression,STREETSW,37.75365577,-122.1679237,CLOSED,,1/25/12 11:20,22,6079488,2101182,CCD7,34X,2021 89TH AV,Oakland,CA
392690,1/3/12 11:42,Phone or Email,Streets - Potholes/Depression,STREETSW,37.79235332,-122.23785,CLOSED,,1/25/12 14:51,22,6059537,2115638,CCD2,18X,1750 E 21ST ST,Oakland,CA
401544,3/20/12 15:30,Phone or Email,Streets - Potholes/Depression,STREETSW,37.80939012,-122.2439129,CLOSED,,4/12/12 12:21,22,6057901,2121873,CCD3,14X,300 MACARTHUR BLVD,Oakland,CA
401878,3/23/12 07:24,SeeClickFix,Streets - Potholes/Depression,STREETSW,37.84457258,-122.2138081,CLOSED,,4/14/12 14:17,22,6066831,2134521,,13Y,PINEHAVEN RD & BROADWAY TER,Oakland,CA
407860,5/7/12 15:25,Website,Streets - Potholes/Depression,STREETSW,37.8491329,-122.2569086,CLOSED,,5/30/12 13:53,22,6054419,2136412,CCD1,12Y,405 63RD ST,Oakland,CA
408164,5/9/12 14:06,Website,Streets - Potholes/Depression,STREETSW,37.82738034,-122.2811369,CLOSED,,5/31/12 14:27,22,6047274,2128625,CCD3,07X,PERALTA ST & WATTS ST,Oakland,CA
438619,12/17/12 14:57,Phone or Email,Streets - Potholes/Depression,STREETSW,37.7349609,-122.1737504,CLOSED,,1/9/13 14:22,22,6077682,2094406,CCD7,32X,10620 SAN LEANDRO ST,Oakland,CA
439339,12/22/12 10:30,SeeClickFix,Streets - Potholes/Depression,STREETSW,37.78292768,-122.2306591,CLOSED,,1/14/13 08:42,22,6061551,2112168,CCD5,20X,2626 E 16TH ST,Oakland,CA
395862,1/31/12 10:01,Phone or Email,Streets/Sidewalks - Pathway Repair,STREETSW,37.83927914,-122.2104301,CLOSED,,2/23/12 12:56,23,6067771,2132576,CCD4,13Y,5960 MERRIEWOOD DR,Oakland,CA
402195,3/26/12 15:23,Phone or Email,Streets/Sidewalks - Curb & Gutter Repair,STREETSW,37.80988563,-122.2667264,CLOSED,,4/19/12 08:52,23,6051315,2122177,CCD3,04X,21ST ST & FRANKLIN ST,Oakland,CA
408564,5/12/12 06:52,Website,Streets - Potholes/Depression,STREETSW,37.76987735,-122.170897,CLOSED,,6/4/12 15:21,23,6078734,2107103,CCD6,30Y,73RD AV & NEY AV,Oakland,CA
412675,6/12/12 10:40,Phone or Email,Streets - Potholes/Depression,STREETSW,37.86419544,-122.2219218,CLOSED,,7/5/12 14:11,23,6064620,2141708,CCD1,13Y,MARLBOROUGH TER & GRIZZLY PEAK BLVD,Oakland,CA
396965,2/9/12 19:43,Website,Streets - Potholes/Depression,STREETSW,37.77533722,-122.2269836,CLOSED,,3/5/12 12:46,24,6062562,2109385,CCD5,20X,FRUITVALE AV & SAN LEANDRO BLVD,Oakland,CA
397174,2/14/12 08:47,Phone or Email,Streets - Potholes/Depression,STREETSW,37.83501812,-122.2570282,CLOSED,,3/9/12 14:50,24,6054288,2131274,CCD1,12X,49TH AV & LAWTON AV,Oakland,CA
402337,3/27/12 11:34,Phone or Email,Streets - Potholes/Depression,STREETSW,37.83506045,-122.1875165,CLOSED,,4/20/12 15:47,24,6074359,2130920,CCD4,13Z,SHEPHERD CANYON RD & AITKEN DR,Oakland,CA
403766,4/6/12 12:40,Phone or Email,Streets - Potholes/Depression,STREETSW,37.80406338,-122.2337136,CLOSED,,5/1/12 10:22,24,6060811,2119879,CCD2,15X,PARK BLVD & MACARTHUR BLVD,Oakland,CA
405697,4/22/12 14:16,Website,Streets - Potholes/Depression,STREETSW,37.82824886,-122.2587657,CLOSED,,5/17/12 11:55,24,6053740,2128819,CCD1,08X,40TH STREET & OPAL ST,Oakland,CA
420334,8/4/12 12:30,SeeClickFix,Streets/Sidewalks - Pathway Repair,STREETSW,37.84628567,-122.2392135,CLOSED,,8/29/12 07:55,24,6059508,2135280,CCD1,13X,BROOKSIDE AV & OCEAN VIEW DR,Oakland,CA
399240,3/1/12 16:14,SeeClickFix,Streets - Potholes/Depression,STREETSW,37.81449697,-122.278643,CLOSED,,3/27/12 09:54,25,6047905,2123921,CCD3,07X,MARKET ST & W GRAND AV,Oakland,CA
401822,3/22/12 13:25,Phone or Email,Streets - Potholes/Depression,STREETSW,37.78985293,-122.214262,CLOSED,,4/17/12 12:57,25,6066335,2114602,CCD5,21Y,3305 DEERING ST,Oakland,CA
402609,3/29/12 09:24,SeeClickFix,Streets - Potholes/Depression,STREETSW,37.80646767,-122.2459457,CLOSED,,4/23/12 10:35,25,6057294,2120820,CCD2,15X,583 RADNOR RD,Oakland,CA
421089,8/10/12 08:39,Website,Streets - Potholes/Depression,STREETSW,37.73980641,-122.1783734,CLOSED,,9/4/12 16:02,25,6076377,2096194,CCD7,32X,9837 MEDFORD AV,Oakland,CA
425825,9/17/12 08:27,Website,Streets - Potholes/Depression,STREETSW,37.86094762,-122.2432993,CLOSED,,10/12/12 11:30,25,6058427.92,2140639.83,CCD1,13Y,RUSSELL ST & CLAREMONT AV,Oakland,CA
437258,12/7/12 15:51,Phone or Email,Streets - Potholes/Depression,STREETSW,37.80050188,-122.2373726,CLOSED,,1/2/13 09:04,25,6059730,2118602,CCD2,17Y,1025 E 28TH ST,Oakland,CA
439703,12/29/12 11:22,Website,Streets - Potholes/Depression,STREETSW,37.83953174,-122.2738745,CLOSED,,1/24/13 09:58,25,6049455,2133009,CCD1,10Y,5528 MARKET ST,Oakland,CA
401968,3/23/12 14:04,Phone or Email,Streets - Potholes/Depression,STREETSW,37.80199162,-122.265237,CLOSED,,4/19/12 13:35,26,6051691,2119295,CCD2,03X,JACKSON ST & 14TH ST,Oakland,CA
411457,6/4/12 12:09,Phone or Email,Streets - Potholes/Depression,STREETSW,37.84346457,-122.2102841,CLOSED,,6/30/12 14:07,26,6067841,2134099,CCD1,13Y,6400 VALLEY VIEW RD,Oakland,CA
437069,12/6/12 13:52,Website,Streets - Potholes/Depression,STREETSW,37.74847253,-122.1617052,CLOSED,,1/2/13 09:09,26,6081252,2099263,CCD7,35X,98TH AV & BANCROFT AV,Oakland,CA
414532,6/25/12 13:02,Phone or Email,Streets - Guardrail Repair,STREETSW,37.76046301,-122.157358,CLOSED,,7/23/12 12:28,27,6082586,2103606,CCD7,35X,GOLF LINKS RD & BLANDON RD,Oakland,CA
418665,7/24/12 20:20,SeeClickFix,Streets - Potholes/Depression,STREETSW,37.79354353,-122.2513462,CLOSED,,8/21/12 09:38,27,6055646,2116144,CCD2,19X,8TH AV & INTERNATIONAL BLVD,Oakland,CA
424519,9/5/12 14:15,Phone or Email,Streets/Sidewalks - Cross-Culvert Repair,STREETSW,37.79071819,-122.1881772,CLOSED,,10/2/12 15:20,27,6073877,2114780,CCD4,25X,HIGH ST & TOMPKINS AV,Oakland,CA
436876,12/5/12 13:49,Phone or Email,Streets - Potholes/Depression,STREETSW,37.76772427,-122.1799523,CLOSED,,1/2/13 09:06,27,6076103,2106366,CCD6,30X,2401 CHURCH ST,Oakland,CA
395366,1/26/12 10:00,Phone or Email,Streets - Potholes/Depression,STREETSW,37.80474742,-122.2923231,CLOSED,,2/23/12 13:13,28,6043886,2120447,CCD3,02X,533  KIRKHAM ST,Oakland,CA
422140,8/18/12 07:41,Website,Streets - Potholes/Depression,STREETSW,37.8215594,-122.2704012,CLOSED,,9/15/12 13:59,28,6050334,2126447,CCD3,06X,3204 MARTIN LUTHER KING JR WY,Oakland,CA
426979,9/24/12 14:41,Phone or Email,Streets - Potholes/Depression,STREETSW,37.83871579,-122.2013289,CLOSED,,10/22/12 16:10,28,6070395,2132323,CCD4,13Z,7118 THORNHILL DR,Oakland,CA
426996,9/24/12 16:06,Phone or Email,Streets - Potholes/Depression,STREETSW,37.82623322,-122.2105346,CLOSED,,10/23/12 09:41,28,6067654,2127827,CCD4,13Z,6123 LA SALLE AV,Oakland,CA
436679,12/4/12 16:02,Phone or Email,Streets - Potholes/Depression,STREETSW,37.78479275,-122.2315955,CLOSED,,1/2/13 09:10,28,6061293,2112852,CCD5,21X,2448 FOOTHILL BLVD,Oakland,CA
402169,3/26/12 13:33,Phone or Email,Streets - Potholes/Depression,STREETSW,37.81991785,-122.2001224,CLOSED,,4/24/12 15:13,29,6070619,2125473,CCD4,13Z,ASCOT DR & MOUNTAIN GATE WY,Oakland,CA
402765,3/30/12 22:48,SeeClickFix,Streets - Potholes/Depression,STREETSW,37.80724437,-122.2205698,CLOSED,,4/30/12 09:22,30,6064629,2120967,CCD5,16Y,4329 EVANS AV,Oakland,CA
409876,5/22/12 11:23,Phone or Email,Streets - Potholes/Depression,STREETSW,37.8071313,-122.2309256,CLOSED,,6/22/12 11:20,30,6061637,2120981,CCD2,16Y,1200 TRESTLE GLEN RD,Oakland,CA
438676,12/18/12 08:40,SeeClickFix,Streets - Potholes/Depression,STREETSW,37.83597311,-122.262613,CLOSED,,1/17/13 09:17,30,6052682,2131652,CCD1,12X,TELEGRAPH AV & 49TH ST,Oakland,CA
395409,1/26/12 12:55,Phone or Email,Streets - Potholes/Depression,STREETSW,37.81394591,-122.2136308,CLOSED,,2/27/12 11:05,31,6066678,2123370,Piedmont,PDT2,PARK BLVD & ESTATES DR,Oakland,CA
406749,4/29/12 16:04,SeeClickFix,Streets - Potholes/Depression,STREETSW,37.79052145,-122.2447158,CLOSED,,5/31/12 14:15,31,6057541,2115008,CCD2,19X,10801 FOOTHILL BLVD,Oakland,CA
407942,5/8/12 10:52,Phone or Email,Streets - Potholes/Depression,STREETSW,37.77160983,-122.1740468,CLOSED,,6/8/12 15:29,31,6077835,2107750,CCD6,29X,LACEY AV & 69TH AV,Oakland,CA
402681,3/29/12 14:24,Phone or Email,Streets - Potholes/Depression,STREETSW,37.81933276,-122.2517504,CLOSED,,5/1/12 10:04,32,6055705,2125535,CCD2,14Y,34 MOSS AV,Oakland,CA
417271,7/15/12 22:13,Website,Streets - Potholes/Depression,STREETSW,37.80932898,-122.2497105,CLOSED,,8/17/12 15:17,32,6056226,2121882,CCD3,14X,GRAND AVE & EL EMBARCADERO,Oakland,CA
